stop_id,stop_name,city,route_type,routes_serviced,flood_risk_category,access_to_hospital_category,job_access_category,worker_vulnerability_category,latitude,longitude
0454,DNTC,hr,Bus,"['980_merged_9880518', '980_merged_9880508', '961_merged_9880526', '961_merged_9880516', '960_merged_9880525', '960_merged_9880515', '045', '044', '020', '018', '013', '011', '009', '008', '006', '004', '003', '002', '001']",2,0,2,1,36.850464,-76.283474
0404,SAINT PAULS & WOOD,hr,Bus,"['960_merged_9880525', '960_merged_9880515', '045', '008', '006']",2,0,2,1,36.850991,-76.284817
0455,BRAMBLETON & SAINT PAULS,hr,Bus,"['045', '044', '020', '011', '008', '006', '003', '002', '001']",2,0,2,1,36.853709,-76.284791
0612,BRAMBLETON & LINCOLN,hr,Bus,"['045', '044', '020', '011', '008', '006', '003', '002', '001']",2,0,2,1,36.853475,-76.282015
0613,BRAMBLETON & CHURCH,hr,Bus,"['018', '013', '009']",2,0,2,1,36.85267,-76.279497
3024,TIDEWATER & MAY,hr,Bus,['008'],2,0,2,1,36.848367,-76.276832
0604,TIDEWATER & CHARLOTTE,hr,Bus,['008'],2,0,2,1,36.847372,-76.277687
8006,HARBOR PARK STATION,hr,Tram,['800'],2,0,2,1,36.844006,-76.278042
0003,SAINT PAULS & CHARLOTTE,hr,Bus,"['961_merged_9880526', '961_merged_9880516']",2,0,2,1,36.85184,-76.28552
0006,SAINT PAULS & PLUME,hr,Bus,"['961_merged_9880526', '961_merged_9880516', '960_merged_9880525', '960_merged_9880515', '045', '008', '006']",2,0,2,1,36.846439,-76.285941
0008,WATERSIDE & COMMERCIAL,hr,Bus,"['961_merged_9880526', '961_merged_9880516', '960_merged_9880525', '960_merged_9880515', '045', '006']",2,0,2,1,36.844572,-76.289287
5636,BOUSH & BROOKE,hr,Bus,"['961_merged_9880526', '961_merged_9880516']",2,0,2,1,36.848608,-76.29251
6052,CITY HALL & BANK,hr,Bus,"['960_merged_9880525', '960_merged_9880515', '045', '006']",2,0,2,1,36.847532,-76.289507
5888,BRAMBLETON & YARMOUTH,hr,Bus,['044'],2,1,2,0,36.853881,-76.293681
6094,BANK & PLUME,hr,Bus,['008'],2,0,2,1,36.846505,-76.289381
0010,MONTICELLO & BRAMBLETON,hr,Bus,"['003', '001']",2,0,2,1,36.853162,-76.287918
0011,MONTICELLO & STARKE,hr,Bus,"['003', '001']",2,0,2,1,36.854809,-76.287066
8002_merged_9880507,YORK STREET FREEMASON STATION,hr,Tram,['800'],2,1,2,0,36.853515,-76.293636
8003,MONTICELLO,hr,Tram,['800'],2,0,2,1,36.851187,-76.288796
8004,MACARTHUR SQUARE STATION,hr,Tram,['800'],2,0,2,1,36.847201,-76.290229
8005,CIVIC PLAZA STATION,hr,Tram,['800'],2,0,2,1,36.845937,-76.286011
8002_merged_9880496,YORK STREET FREEMASON STATION,hr,Tram,['800'],2,1,2,0,36.853569,-76.293885
F001,FERRY STOP - WATERSIDE,hr,Ferry,['090'],2,0,2,1,36.843292,-76.290922
5607,VIRGINIA BEACH & BOUSH,hr,Bus,"['011', '002']",2,1,2,1,36.857746,-76.288728
5605,VIRGINIA BEACH & GRANBY,hr,Bus,"['011', '002']",2,1,2,1,36.857576,-76.289696
1720,BART & COURT,hr,Bus,['980_merged_9880518'],2,1,2,2,36.831797,-76.30161
1550,COUNTY & COURT,hr,Bus,"['980_merged_9880518', '980_merged_9880508', '045', '050', '047', '043', '041']",2,1,2,2,36.8339,-76.299099
1551,PORT CENTRE & BART,hr,Bus,"['980_merged_9880518', '980_merged_9880508', '045', '041']",2,1,2,2,36.83128,-76.300825
5537,BART & COURT,hr,Bus,"['980_merged_9880508', '045']",2,1,2,2,36.831868,-76.299974
5548,COUNTY & DINWIDDIE,hr,Bus,"['045', '050']",2,2,2,2,36.833772,-76.302534
5554,COUNTY & GREEN,hr,Bus,"['045', '050']",2,2,2,2,36.833738,-76.305165
5553,COUNTY & WASHINGTON,hr,Bus,"['045', '050']",2,2,2,2,36.833681,-76.304082
5549,COUNTY & DINWIDDIE,hr,Bus,"['045', '050']",2,2,2,2,36.833713,-76.302597
1636,EFFINGHAM & COUNTY,hr,Bus,['045'],2,2,2,2,36.833168,-76.306665
1715,HIGH & COURT,hr,Bus,"['047', '043']",2,2,2,2,36.835444,-76.301227
1716,HIGH & WASHINGTON,hr,Bus,"['047', '043']",2,2,2,2,36.835373,-76.304342
1687,HIGH & EFFINGHAM,hr,Bus,['047'],2,2,2,2,36.835267,-76.307333
1690,HIGH & CHESTNUT,hr,Bus,['047'],2,2,2,2,36.835087,-76.308031
1685,HIGH & WASHINGTON,hr,Bus,"['047', '043']",2,2,2,2,36.835194,-76.303472
1692,HIGH & DINWIDDIE,hr,Bus,"['047', '043']",2,2,2,2,36.835221,-76.302038
1587,HIGH & CRAWFORD,hr,Bus,"['047', '043']",2,2,2,2,36.835306,-76.299245
5546,CRAWFORD & EFFINGHAM,hr,Bus,['043'],2,2,2,2,36.841248,-76.306906
5547,EFFINGHAM & NORTH,hr,Bus,['043'],2,2,2,2,36.83909,-76.306893
5202,EFFINGHAM & QUEEN,hr,Bus,['043'],2,2,2,2,36.835895,-76.30687
5542,EFFINGHAM & FIREHOUSE,hr,Bus,['043'],2,2,2,2,36.837745,-76.306899
F002,FERRY STOP - HIGH ST,hr,Ferry,['090'],2,1,2,1,36.835202,-76.296357
F003,FERRY STOP - NORTH LANDING,hr,Ferry,['090'],2,1,2,2,36.838848,-76.296165
5544,CRAWFORD & EFFINGHAM,hr,Bus,['043'],2,2,2,2,36.841229,-76.306318
5697,VICTORY CROSSING,hr,Bus,"['980_merged_9880518', '980_merged_9880508', '045', '044', '050', '041', '057']",1,0,1,1,36.809444,-76.352698
1570_merged_9880499,MISSY ELLIOTT & BELMONT,hr,Bus,"['045', '044', '057']",1,0,1,1,36.811638,-76.352758
1588,CAVALIER & MCLEAN,hr,Bus,"['045', '044', '050', '041', '057']",1,0,1,1,36.809905,-76.351453
1752_merged_9880498,MISSY ELLIOTT & COLLEGE,hr,Bus,"['045', '044', '050', '041', '057']",1,0,1,1,36.807231,-76.34824
1753_merged_9880497,MISSY ELLIOTT & GREENWOOD,hr,Bus,"['045', '044', '050', '041', '057']",1,0,1,1,36.805212,-76.345981
1914_merged_9880504,MISSY ELLIOTT & BELMONT,hr,Bus,"['045', '044', '057']",1,0,1,1,36.811508,-76.352602
1615_merged_9880500,MISSY ELLIOTT & COURT,hr,Bus,"['045', '044', '057']",1,0,1,1,36.814112,-76.354969
1570_merged_9880488,MCLEAN & BELMONT,hr,Bus,"['045', '044', '057']",1,0,1,1,36.811638,-76.352758
1752_merged_9880487,MCLEAN & COLLEGE,hr,Bus,"['045', '044', '050', '041', '057']",1,0,1,1,36.807231,-76.34824
1753_merged_9880486,MCLEAN & GREENWOOD,hr,Bus,"['045', '044', '050', '041', '057']",1,0,1,1,36.805212,-76.345981
1914_merged_9880493,MCLEAN & BELMONT,hr,Bus,"['045', '044', '057']",1,0,1,1,36.811508,-76.352602
1615_merged_9880489,MCLEAN & COURT,hr,Bus,"['045', '044', '057']",1,0,1,1,36.814112,-76.354969
9424,GREENWOOD & NORMANDY,hr,Bus,"['045', '044', '050', '041']",1,0,1,2,36.801143,-76.351442
1569,VICTORY & FREEDOM,hr,Bus,"['045', '044', '050']",1,0,1,2,36.80514,-76.354306
5732_merged_9880503,MISSY ELLIOTT & COLLEGE,hr,Bus,"['050', '041', '057']",1,0,1,1,36.807388,-76.348192
5732_merged_9880492,MCLEAN & COLLEGE,hr,Bus,"['050', '041', '057']",1,0,1,1,36.807388,-76.348192
1742,DEEP CREEK & BENTON,hr,Bus,['050'],1,0,0,2,36.809601,-76.328873
1743,GREENWOOD & MAUPIN,hr,Bus,['050'],1,0,1,2,36.806516,-76.331457
5972,GREENWOOD & INDEPENDENCE,hr,Bus,['050'],1,0,0,2,36.806338,-76.335845
1744,GREENWOOD & PARADISE,hr,Bus,['050'],1,0,1,1,36.805837,-76.343694
1758,DEEP CREEK & DEKALB,hr,Bus,['050'],1,0,0,2,36.808889,-76.329037
1741,DEEP CREEK & CHARLES,hr,Bus,['050'],1,0,0,2,36.811272,-76.327673
1754,GREENWOOD & PARADISE,hr,Bus,['050'],2,0,1,1,36.805448,-76.34428
1755,GREENWOOD & INDEPENDENCE,hr,Bus,['050'],2,0,0,2,36.806154,-76.335686
1756,GREENWOOD & MAUPIN,hr,Bus,['050'],2,0,1,2,36.806398,-76.331919
3117,VICTORY & BEECHDALE,hr,Bus,"['041', '057']",2,0,1,2,36.795859,-76.339452
1575,VICTORY & DEEP CREEK,hr,Bus,"['041', '057']",2,0,1,2,36.795967,-76.33541
3127,VICTORY & KENT,hr,Bus,"['041', '057']",2,0,0,2,36.796038,-76.341168
5731,GREENWOOD & NORMANDY,hr,Bus,"['041', '057']",2,0,1,2,36.800996,-76.351202
2493,GUST & BUNCHE,hr,Bus,['041'],2,0,0,2,36.79706,-76.349753
2445,GUST & MARCY,hr,Bus,['041'],2,0,0,1,36.795186,-76.347214
1728,JOLLIFF LANDING & PORTSMOUTH,hr,Bus,"['980_merged_9880518', '980_merged_9880508']",1,0,0,1,36.815348,-76.448865
1904,AIRLINE & QUAILSHIRE,hr,Bus,['057'],1,0,0,0,36.793775,-76.401154
1923,AIRLINE & BROOKESHIRE,hr,Bus,['057'],1,0,0,0,36.796631,-76.397723
1905,AIRLINE & MAPLEFIELD,hr,Bus,['057'],1,0,0,0,36.797367,-76.396419
1924,AIRLINE & AHOY,hr,Bus,['057'],1,0,0,1,36.799544,-76.392762
1922,SUNKIST & AIRLINE,hr,Bus,['057'],1,0,0,0,36.792901,-76.402022
1920,AIRLINE & AHOY,hr,Bus,['057'],1,0,0,1,36.799902,-76.392459
1921,AIRLINE & HOLLEY COVE,hr,Bus,['057'],1,0,0,0,36.797345,-76.396784
5735,AIRLINE & PIERCE,hr,Bus,['057'],1,0,0,0,36.794814,-76.400366
1796,NORTHGATE COMMERCE & INDUSTRIAL,hr,Bus,"['980_merged_9880518', '980_merged_9880508']",1,0,0,1,36.809747,-76.475228
5402,RIVER ROAD,hr,Bus,"['961_merged_9880526', '961_merged_9880516', '972_merged_9880520', '972_merged_9880510', '967_merged_9880524', '967_merged_9880514', '921', '430', '405', '403', '121']",1,0,2,1,37.00354,-76.443912
5627,NORTH GATE GRUMMAN SHELTER,hr,Bus,"['961_merged_9880526', '961_merged_9880516', '972_merged_9880520', '972_merged_9880510', '967_merged_9880524', '967_merged_9880514', '921', '430', '405', '403', '121', '966_merged_9880523', '966_merged_9880513', '964', '414', '064']",1,0,2,1,37.001926,-76.443102
2795,WASHINGTON & 49TH,hr,Bus,"['961_merged_9880526', '961_merged_9880516', '972_merged_9880520', '972_merged_9880510', '967_merged_9880524', '967_merged_9880514', '921', '430', '405', '403', '121', '966_merged_9880523', '966_merged_9880513', '964', '414', '064', '415', '112', '107', '106']",1,0,2,1,36.993138,-76.439984
2797,WASHINGTON & 46TH,hr,Bus,"['961_merged_9880526', '961_merged_9880516', '972_merged_9880520', '972_merged_9880510', '967_merged_9880524', '967_merged_9880514', '921', '430', '405', '403', '121', '966_merged_9880523', '966_merged_9880513', '964', '414', '064', '415', '107', '106']",1,0,2,1,36.991283,-76.438804
2799,WASHINGTON & 41ST,hr,Bus,"['961_merged_9880526', '961_merged_9880516', '972_merged_9880520', '972_merged_9880510', '967_merged_9880524', '967_merged_9880514', '921', '430', '405', '403', '121', '966_merged_9880523', '966_merged_9880513', '964', '414', '064', '415', '107', '106']",1,0,2,1,36.988091,-76.436846
2608,WASHINGTON & 42ND,hr,Bus,"['961_merged_9880526', '961_merged_9880516', '430', '405', '403', '964', '064', '415', '107', '106', '103']",1,0,2,1,36.988569,-76.436943
2610,WASHINGTON & 46TH,hr,Bus,"['961_merged_9880526', '961_merged_9880516', '430', '405', '403', '964', '064', '415', '107', '106', '103']",1,0,2,1,36.991097,-76.43852
2611,WASHINGTON & 49TH,hr,Bus,"['961_merged_9880526', '961_merged_9880516', '430', '405', '403', '964', '064', '415', '107', '106', '103']",1,0,2,1,36.992728,-76.439553
2613,WARWICK & 51ST,hr,Bus,"['967_merged_9880524', '967_merged_9880514', '405', '403', '415', '107', '106']",1,0,2,1,36.995724,-76.436585
2101,75TH & RIVER,hr,Bus,"['430', '964', '064', '114']",1,0,2,1,37.013167,-76.451403
5923,NGGRUM WALK IN GATE,hr,Bus,"['430', '405']",1,0,0,1,37.003563,-76.444492
2794,50TH & HUNTINGTON,hr,Bus,"['430', '403', '414', '415', '107', '106']",1,0,2,1,36.994244,-76.439155
2612,49TH & HUNTINGTON,hr,Bus,"['405', '107', '106']",1,0,2,1,36.993982,-76.437559
2617,WARWICK & 60TH,hr,Bus,"['403', '415', '107', '106']",1,0,2,1,37.001586,-76.440171
2619,WARWICK & 66TH,hr,Bus,"['403', '107', '106']",1,0,2,1,37.00606,-76.442971
3368,HUNTINGTON PARK PNR,hr,Bus,"['964', '064']",1,0,2,1,37.01638,-76.453151
2500,WASHINGTON & 37TH,hr,Bus,"['415', '107', '106', '105']",1,0,2,1,36.985595,-76.435305
2089,WARWICK & 75TH,hr,Bus,"['107', '106', '114']",1,0,2,1,37.014571,-76.448626
2103,WARWICK & REBEL,hr,Bus,"['107', '106', '114']",1,0,2,1,37.015548,-76.448842
2615,WARWICK & 55TH,hr,Bus,"['107', '106']",1,0,2,1,36.998744,-76.438429
2618,WARWICK & 63RD,hr,Bus,"['107', '106']",1,0,2,1,37.003455,-76.441347
2621,WARWICK & 71ST,hr,Bus,"['107', '106']",1,0,2,1,37.011137,-76.446139
2622,WARWICK & 73RD,hr,Bus,"['107', '106']",1,0,2,1,37.012989,-76.447291
2623,WARWICK & UNION,hr,Bus,"['107', '106']",1,0,2,1,37.019907,-76.451543
2624,WARWICK & LAFAYETTE,hr,Bus,"['107', '106']",1,0,2,1,37.022006,-76.452858
2782,WARWICK & SOUTH,hr,Bus,"['107', '106']",1,0,2,1,37.023176,-76.453883
2784,WARWICK & HORNET,hr,Bus,"['107', '106']",1,0,2,1,37.018535,-76.451077
2785,WARWICK & 72ND,hr,Bus,"['107', '106']",1,0,2,1,37.011848,-76.44692
2787,HUNTINGTON & 68TH,hr,Bus,"['107', '106']",1,0,2,1,37.006559,-76.445668
2789,HUNTINGTON & 64TH,hr,Bus,"['107', '106']",1,0,2,1,37.003697,-76.443517
2791,HUNTINGTON & 59TH,hr,Bus,"['107', '106']",1,0,2,1,37.000247,-76.441993
2792,HUNTINGTON & 56TH,hr,Bus,"['107', '106']",1,0,2,1,36.998018,-76.440751
2090,73RD & WARWICK,hr,Bus,['114'],1,0,2,1,37.012459,-76.44786
2100,73RD & BELVEDERE,hr,Bus,['114'],1,0,2,1,37.011862,-76.449487
2102,75TH & WARWICK,hr,Bus,['114'],1,0,2,1,37.014148,-76.44892
2000,NEWPORT NEWS TRANSIT CENTER,hr,Bus,"['961_merged_9880526', '961_merged_9880516', '967_merged_9880524', '967_merged_9880514', '430', '405', '403', '964', '414', '064', '415', '112', '107', '106', '105', '104', '103', '101']",2,0,2,1,36.983556,-76.434228
2179,WASHINGTON & 34TH,hr,Bus,"['972_merged_9880520', '972_merged_9880510', '921', '121', '966_merged_9880523', '966_merged_9880513']",2,0,2,1,36.983824,-76.434184
2176,26TH & WASHINGTON,hr,Bus,"['403', '964', '064', '112', '105', '104', '101']",2,0,2,1,36.978482,-76.430598
2558,WASHINGTON & 37TH,hr,Bus,"['403', '415', '107', '106', '105', '103']",2,0,2,1,36.985368,-76.434982
2001,WASHINGTON & 29TH,hr,Bus,"['403', '112', '105', '104', '103', '101']",2,0,2,1,36.980415,-76.432096
2002,WASHINGTON & 26TH,hr,Bus,"['403', '112', '105', '104', '101']",2,0,2,1,36.978567,-76.430913
2003,25TH & HUNTINGTON,hr,Bus,"['403', '112', '105', '104', '101']",2,0,2,1,36.978036,-76.429436
2600,IVY & 6TH,hr,Bus,"['964', '064', '112']",2,0,0,2,36.970788,-76.409324
2602,IVY & 12TH,hr,Bus,"['964', '064', '112']",2,0,0,2,36.973615,-76.412436
2604,IVY & 16TH,hr,Bus,"['964', '064', '112']",2,0,0,2,36.975751,-76.414745
2177,WASHINGTON & 29TH,hr,Bus,"['964', '064', '112', '105', '104', '103', '101']",2,0,2,1,36.98001,-76.431684
2178,WASHINGTON & 32ND,hr,Bus,"['964', '064', '112', '105', '104', '103', '101']",2,0,2,1,36.982067,-76.432942
2502,JEFFERSON & 25TH,hr,Bus,"['112', '105']",2,1,2,2,36.980856,-76.420829
2800,JEFFERSON & 20TH,hr,Bus,['112'],2,0,0,2,36.977645,-76.41887
2802,JEFFERSON & 16TH,hr,Bus,['112'],2,0,0,2,36.975111,-76.417335
2804,JEFFERSON & 12TH,hr,Bus,['112'],2,0,0,2,36.972515,-76.415737
2806,JEFFERSON & 6TH,hr,Bus,['112'],2,0,0,1,36.969774,-76.413938
2808,6TH & AQUA VISTA,hr,Bus,['112'],2,0,0,1,36.969466,-76.410455
2601,IVY & 9TH,hr,Bus,['112'],2,0,0,1,36.972086,-76.410763
2300,28TH & HUNTINGTON,hr,Bus,['103'],2,0,2,1,36.980258,-76.429965
2047,HAMPTON TRANSIT CENTER,hr,Bus,"['961_merged_9880526', '961_merged_9880516', '403', '103', '101', '114', '120', '118', '117', '115', '110', '109', '102']",2,0,2,1,37.030744,-76.346812
2217,PEMBROKE & WINE,hr,Bus,"['961_merged_9880526', '961_merged_9880516', '120', '109']",2,0,2,1,37.030293,-76.344602
2091,EATON & MILL POINT,hr,Bus,"['961_merged_9880526', '961_merged_9880516', '117']",2,1,2,1,37.027208,-76.342093
2045,EATON & MILL POINT,hr,Bus,"['961_merged_9880526', '961_merged_9880516', '117']",2,1,2,1,37.027312,-76.341819
2137,KING & PEMBROKE,hr,Bus,"['403', '103', '101', '118', '117', '110']",2,0,2,1,37.028837,-76.345161
3011,LINCOLN & FRANKLIN,hr,Bus,"['403', '103', '101', '118', '110']",2,0,2,1,37.027732,-76.347519
3343,ARMISTEAD & QUEEN,hr,Bus,"['403', '103', '101', '118', '110']",2,0,2,1,37.02595,-76.349824
2259,ARMISTEAD & QUEEN,hr,Bus,"['403', '103', '101', '118', '110']",2,0,2,1,37.02662,-76.349548
3004,LINCOLN & FRANKLIN,hr,Bus,"['403', '103', '101', '118', '110']",2,0,2,1,37.027597,-76.34693
2046,KING & PEMBROKE,hr,Bus,"['403', '103', '101', '118', '117', '110']",2,0,2,1,37.029243,-76.345087
2219,PEMBROKE & CENTER,hr,Bus,"['120', '109']",2,0,2,1,37.030859,-76.341367
3812,PEMBROKE & WASHINGTON,hr,Bus,"['120', '109']",2,0,2,1,37.030792,-76.342955
2262,QUEEN & BACKRIVER,hr,Bus,['110'],2,0,2,1,37.026071,-76.356011
2265,QUEEN & PATTERSON,hr,Bus,['110'],2,0,1,1,37.026142,-76.360774
5613,PEMBROKE & WAVERLY,hr,Bus,['102'],2,0,2,1,37.029543,-76.351799
5600,PEMBROKE & BACK RIVER,hr,Bus,['102'],2,0,2,1,37.02929,-76.356171
5563,PEMBROKE & PARKDALE,hr,Bus,['102'],2,0,1,1,37.027834,-76.362116
5518,PEMBROKE & PARKDALE,hr,Bus,['102'],2,0,1,1,37.027578,-76.362221
5601,PEMBROKE & BACK RIVER,hr,Bus,['102'],2,0,2,1,37.029123,-76.356453
5612,PEMBROKE & WAVERLY,hr,Bus,['102'],2,0,2,1,37.029341,-76.352855
2261,QUEEN & STEWART,hr,Bus,['110'],1,0,2,1,37.025874,-76.353586
2141,KECOUGHTAN & LEE,hr,Bus,"['403', '101']",1,0,2,1,37.022327,-76.352548
2151,KECOUGHTAN & EAST,hr,Bus,"['403', '101']",1,0,1,2,37.008139,-76.361464
2157,KECOUGHTAN & RALEIGH,hr,Bus,"['403', '101']",1,0,0,2,37.005772,-76.372891
2040,KECOUGHTAN & CHAPEL,hr,Bus,"['403', '101']",1,0,2,1,37.023521,-76.352259
2834,SETTLERS LANDING & STEWART,hr,Bus,"['103', '118']",1,0,2,1,37.024542,-76.353903
2835,SETTLERS LANDING & BACK RIVER,hr,Bus,"['103', '118']",1,0,2,1,37.024672,-76.357018
2836,SETTLERS LANDING & LASALLE,hr,Bus,"['103', '118']",1,0,1,1,37.024895,-76.361906
2887,SETTLERS LANDING & LASALLE,hr,Bus,"['103', '118']",1,0,1,1,37.024708,-76.362549
2888,SETTLERS LANDING & BACK RIVER,hr,Bus,"['103', '118']",1,0,2,1,37.024447,-76.357048
2889,SETTLERS LANDING & STEWART,hr,Bus,"['103', '118']",1,0,2,1,37.024266,-76.353684
6057,LASALLE & AUGUSTA,hr,Bus,['103'],1,0,1,2,37.02001,-76.36359
2345,LASALLE & MOORE,hr,Bus,['103'],1,0,1,2,37.017771,-76.362212
2346,VICTORIA & HOMESTEAD,hr,Bus,['103'],1,0,1,2,37.01486,-76.364059
2347,VICTORIA & ALGONQUIN,hr,Bus,['103'],1,0,1,2,37.013565,-76.36643
2348,VICTORIA & COLONIAL,hr,Bus,['103'],1,0,1,2,37.011921,-76.369355
2349,HAMPTON ROADS & SHELL,hr,Bus,['103'],1,0,1,2,37.013974,-76.370917
2330,SHELL & RALEIGH,hr,Bus,['103'],1,0,1,2,37.012065,-76.374446
5819,HAMPTON ROADS & SHELL,hr,Bus,['103'],1,0,1,2,37.013925,-76.371027
2332,VICTORIA & ALLEGHANY,hr,Bus,['103'],1,0,1,2,37.012316,-76.368372
2333,VICTORIA & ALGONQUIN,hr,Bus,['103'],1,0,1,2,37.013444,-76.36613
2334,VICTORIA & HOMESTEAD,hr,Bus,['103'],1,0,1,2,37.014299,-76.364559
6058,LASALLE & AUGUSTA,hr,Bus,['103'],1,0,1,2,37.020286,-76.363418
2153,KECOUGHTAN & ALGONQUIN,hr,Bus,['101'],1,0,1,2,37.00787,-76.365497
2155,KECOUGHTAN & HAMPTON ROADS,hr,Bus,['101'],1,0,0,2,37.007456,-76.369697
2212,QUEEN & PATTERSON,hr,Bus,['110'],1,0,1,1,37.026034,-76.361436
2214,QUEEN & MAPLEWOOD,hr,Bus,['110'],1,0,2,1,37.026005,-76.358335
2216,QUEEN & STEWART,hr,Bus,['110'],1,0,2,1,37.025754,-76.353449
9387,SETTLERS LANDING & HAMPTON HARBOR,hr,Bus,"['961_merged_9880526', '961_merged_9880516', '117']",2,1,1,1,37.025107,-76.332772
3002,SETTLERS LANDING & HAMPTON HARBOR,hr,Bus,"['961_merged_9880526', '961_merged_9880516', '117']",2,1,2,1,37.025541,-76.333054
2226,MERCURY & WOODLAND,hr,Bus,['120'],2,0,1,2,37.027926,-76.323764
2227,WOODLAND & OLD BUCKROE,hr,Bus,['120'],2,0,1,1,37.025601,-76.324984
2231,BLACK & MCCLELLAN,hr,Bus,['117'],2,0,0,1,37.016046,-76.333339
2235,MCCLELLAN & HARRIS,hr,Bus,['117'],2,0,0,1,37.01772,-76.33232
5463,MARTIN LUTHER KING JR & SHELTER,hr,Bus,['117'],2,0,0,1,37.017101,-76.329335
0039,WARDS CORNER TRANSFER,hr,Bus,"['961_merged_9880526', '961_merged_9880516', '001', '021']",2,0,2,1,36.917757,-76.272754
0239,HAMMOND & ADMIRAL TAUSSIG,hr,Bus,"['003', '002', '021']",2,0,0,1,36.943201,-76.312152
3774,GATE 4 NAVAL STATION,hr,Bus,['003'],2,0,0,1,36.945231,-76.272542
2084,1ST VIEW & BAY,hr,Bus,['003'],2,0,0,1,36.945088,-76.27041
5920,1ST VIEW & RIDGEWELL,hr,Bus,['003'],2,0,0,1,36.946452,-76.267542
2066,1ST VIEW & BAY,hr,Bus,['003'],2,0,0,1,36.945197,-76.270407
6051,HAMPTON & TAUSSIG,hr,Bus,"['002', '021']",2,0,0,1,36.942136,-76.31906
0240,HAMPTON & B,hr,Bus,"['002', '021']",2,0,0,1,36.936992,-76.318637
0243,HAMPTON & MAPLESHADE,hr,Bus,"['002', '021']",2,0,0,2,36.930522,-76.318052
0244,HAMPTON & BEECHWOOD,hr,Bus,"['002', '021']",2,0,0,2,36.929452,-76.317979
0245,HAMPTON & GLENDALE,hr,Bus,"['002', '021']",2,0,0,2,36.927748,-76.317837
0246,HAMPTON & HELMICK,hr,Bus,"['002', '021']",2,0,0,2,36.925313,-76.317393
0248,HAMPTON & BAKER,hr,Bus,"['002', '021']",2,0,0,1,36.923785,-76.316641
0250,HAMPTON & STAFF COLLEGE,hr,Bus,"['002', '021']",2,0,1,0,36.918838,-76.311732
5145,HAMPTON & B,hr,Bus,"['002', '021']",2,0,0,1,36.938809,-76.318371
5079,HAMPTON & TAUSSIG,hr,Bus,"['002', '021']",2,0,0,1,36.941592,-76.318664
5082,B & VIRGINIA,hr,Bus,['021'],2,0,0,1,36.937312,-76.321285
8870,SECOND & A,hr,Bus,['021'],2,0,0,1,36.938322,-76.325156
8871,SECOND & ESCORT,hr,Bus,['021'],2,0,0,1,36.939719,-76.325278
5085,DECATUR & GILBERT,hr,Bus,['021'],2,0,0,1,36.946526,-76.328556
3891,VIRGINIA & GILBERT,hr,Bus,['021'],2,0,0,1,36.947393,-76.322919
5185,GILBERT & BACON,hr,Bus,['021'],2,0,0,1,36.947358,-76.317263
3892,GILBERT & GALLEY,hr,Bus,['021'],2,0,0,1,36.9475,-76.314491
8851,GILBERT & ZWIEBACK,hr,Bus,['021'],2,0,0,1,36.947692,-76.310371
3893,GILBERT & BAINBRIDGE,hr,Bus,['021'],2,0,0,1,36.947813,-76.307697
0178,GRANBY & KINGSLEY,hr,Bus,"['961_merged_9880526', '961_merged_9880516', '001']",2,2,0,0,36.897975,-76.279961
0030,GRANBY & KINGSLEY,hr,Bus,"['961_merged_9880526', '961_merged_9880516', '001']",2,2,0,0,36.897633,-76.279555
0180,GRANBY & SEVERN,hr,Bus,['001'],2,1,0,0,36.894418,-76.279333
0181,GRANBY & WILLOW WOOD,hr,Bus,['001'],2,1,1,1,36.890773,-76.279176
0027,GRANBY & WILLOW WOOD,hr,Bus,['001'],2,1,1,1,36.891013,-76.278763
0028,GRANBY & SEVERN,hr,Bus,['001'],2,1,0,0,36.894237,-76.278976
0031,GRANBY & DUMONT,hr,Bus,['001'],2,2,1,0,36.900284,-76.278722
0032,GRANBY & SIR OLIVER,hr,Bus,['001'],2,2,1,1,36.902341,-76.27782
0033,GRANBY & SEEKEL,hr,Bus,['001'],2,1,1,1,36.905483,-76.276433
0171,GRANBY & WARREN,hr,Bus,['001'],2,1,2,1,36.908965,-76.275313
0173,GRANBY & OXFORD,hr,Bus,['001'],2,1,1,1,36.905869,-76.276686
0175,GRANBY & CARLISLE,hr,Bus,['001'],2,2,1,1,36.902626,-76.278048
0177,GRANBY & WHITING,hr,Bus,['001'],2,2,1,0,36.900507,-76.278963
0189,MONTICELLO & 19TH,hr,Bus,"['961_merged_9880526', '961_merged_9880516', '003', '001']",2,0,2,1,36.86603,-76.284652
0015,MONTICELLO & 18TH,hr,Bus,"['961_merged_9880526', '961_merged_9880516', '003', '001']",2,0,2,1,36.865303,-76.284726
0722,COLONIAL & PRINCESS ANNE,hr,Bus,['011'],2,1,2,0,36.863687,-76.294024
0725,COLONIAL & WASHINGTON,hr,Bus,['011'],2,1,2,1,36.86727,-76.29254
2287,COLONIAL & 22ND,hr,Bus,['011'],2,0,2,1,36.870173,-76.291275
0444,21ST & DEBREE,hr,Bus,['004'],2,0,2,1,36.868597,-76.289971
0445,21ST & LLEWELLYN,hr,Bus,['004'],2,0,2,1,36.868192,-76.287935
0447,20TH & MONTICELLO,hr,Bus,['004'],2,0,2,1,36.86661,-76.285095
0413,20TH & GRANBY,hr,Bus,['004'],2,0,2,1,36.86679,-76.28527
0414,21ST & OMOHUNDRO,hr,Bus,['004'],2,0,2,1,36.868145,-76.28718
0415,21ST & LLEWELLYN,hr,Bus,['004'],2,0,2,1,36.868589,-76.288774
0416,21ST & DEBREE,hr,Bus,['004'],2,0,2,1,36.868835,-76.290337
0191,MONTICELLO & 15TH,hr,Bus,"['003', '001']",2,0,2,1,36.862512,-76.286128
1235,PRINCESS ANNE & PENDER,hr,Bus,['023'],2,1,2,0,36.861992,-76.291032
1236,PRINCESS ANNE & COLONIAL,hr,Bus,['023'],2,1,2,0,36.863473,-76.29381
0192,MONTICELLO & PRINCESS ANNE,hr,Bus,"['961_merged_9880526', '961_merged_9880516', '003', '001']",2,0,2,1,36.860352,-76.287013
5701,OLNEY & MOWBRAY,hr,Bus,"['011', '002']",2,1,2,0,36.857566,-76.293457
0720,COLONIAL & BOISSEVAIN,hr,Bus,['011'],2,2,2,0,36.859553,-76.296093
0721,COLONIAL & GRAYDON,hr,Bus,['011'],2,1,2,0,36.862689,-76.294543
1168,PRINCESS ANNE & BOTETOURT,hr,Bus,['023'],2,1,2,0,36.862473,-76.292213
0013,MONTICELLO & PRINCESS ANNE,hr,Bus,"['961_merged_9880526', '961_merged_9880516', '003', '001']",1,0,2,1,36.860413,-76.28674
1021,VIRGINIA BEACH & SALTER,hr,Bus,['020'],1,0,2,1,36.857682,-76.284401
3354,VIRGINIA BEACH & LINCOLN,hr,Bus,['020'],1,0,2,1,36.856627,-76.280003
1339,VIRGINIA BEACH & LINCOLN,hr,Bus,['020'],1,0,2,1,36.856821,-76.279903
1159,VIRGINIA BEACH & SALTER,hr,Bus,['020'],1,0,2,1,36.857906,-76.284319
0452,CHURCH & OLNEY,hr,Bus,['004'],1,0,2,1,36.854019,-76.280023
1171,PRINCESS ANNE & ARMISTEAD,hr,Bus,['023'],1,0,2,1,36.86011,-76.285268
1173,PRINCESS ANNE & CHURCH,hr,Bus,['023'],1,0,2,1,36.858214,-76.278704
0317,EVELYN BUTTS & AVENUE J,hr,Bus,"['961_merged_9880526', '961_merged_9880516', '009', '003', '015', '005']",1,0,2,2,36.913998,-76.243418
0354,EVELYN BUTTS & AVENUE J,hr,Bus,"['961_merged_9880526', '961_merged_9880516', '008', '003', '015', '021']",1,0,2,2,36.913906,-76.243577
0660,SEWELLS POINT & KITTREL,hr,Bus,['009'],1,0,2,2,36.904331,-76.242818
0662,SEWELLS POINT & AVENUE E,hr,Bus,['009'],1,0,2,2,36.908209,-76.244668
0663,SEWELLS POINT & DENISON,hr,Bus,['009'],1,0,2,2,36.910401,-76.245794
0664,SEWELLS POINT & AVENUE I,hr,Bus,['009'],1,0,2,2,36.913249,-76.247746
0542,LITTLE CREEK & SEWELLS POINT,hr,Bus,"['008', '021']",1,0,2,2,36.915163,-76.24985
0543,LITTLE CREEK & MERRITT,hr,Bus,"['008', '021']",1,0,2,2,36.914913,-76.246293
0355,CHESAPEAKE & AVE I,hr,Bus,"['003', '015']",1,0,2,2,36.912803,-76.241365
3880,CHESAPEAKE & JOHNSTONS,hr,Bus,"['003', '015']",1,0,2,2,36.908676,-76.240328
0315,CHESAPEAKE & ROSEFIELD,hr,Bus,"['003', '015']",1,0,2,2,36.911102,-76.240749
0357,CHESAPEAKE & JOHNSTONS,hr,Bus,['003'],1,0,2,2,36.907352,-76.24044
0359,CHESAPEAKE & KITRELL,hr,Bus,['003'],1,0,1,2,36.905114,-76.240119
0888,JOHNSTONS & AUBURN,hr,Bus,['015'],1,0,1,2,36.90775,-76.238553
0890,JOHNSTONS & MILITARY,hr,Bus,['015'],1,0,1,1,36.908477,-76.23496
0891,MILITARY & JOHNSTONS,hr,Bus,['015'],1,0,1,1,36.906843,-76.232535
0892,MILITARY & SPRINGMEADOW,hr,Bus,['015'],1,0,0,1,36.904021,-76.230478
0957,JOHNSTONS & MILITARY,hr,Bus,['015'],1,0,1,1,36.908798,-76.234733
0959,JOHNSTONS & ROSEMONT,hr,Bus,['015'],1,0,1,2,36.907862,-76.238279
0665,SEWELLS POINT & AVENUE I,hr,Bus,['009'],1,0,2,2,36.912953,-76.247619
5741,NEWTOWN RD STATION,hr,Bus,"['960_merged_9880525', '960_merged_9880515', '020', '025', '027', '022']",2,1,2,0,36.841462,-76.189499
1294,KEMPSVILLE & BANGOR,hr,Bus,['020'],2,1,2,0,36.843158,-76.18939
1310,KEMPSVILLE & BANGOR,hr,Bus,['020'],2,1,2,0,36.843437,-76.189331
8011,NEWTOWN ROAD STATION,hr,Tram,['800'],2,1,2,0,36.84108,-76.190226
1309,NEWTOWN & GREENWICH,hr,Bus,"['020', '025', '027', '022']",2,0,2,0,36.84343,-76.185579
1295,NEWTOWN & KEMPSVILLE,hr,Bus,"['020', '025', '027', '022']",2,1,2,0,36.842331,-76.186697
1501,PRINCESS ANNE & HILL PRINCE,hr,Bus,['025'],2,0,1,0,36.834677,-76.17832
5404,PRINCESS ANNE & CAPOT,hr,Bus,['025'],2,0,1,0,36.830285,-76.17341
1507,PRINCESS ANNE & PARLIAMENT,hr,Bus,['025'],2,0,2,0,36.828346,-76.167765
1515,PRINCESS ANNE & PARLIAMENT,hr,Bus,['025'],2,0,2,0,36.828505,-76.167516
1516,PRINCESS ANNE & CAPOT,hr,Bus,['025'],2,0,1,0,36.830503,-76.173334
5611,PRINCESS ANNE & HILL PRINCE,hr,Bus,['025'],2,0,1,0,36.835518,-76.1786
5982,PRINCESS ANNE & PARLIAMENT,hr,Bus,['025'],2,0,2,0,36.839314,-76.181305
5411,WITCHDUCK & RURITAN,hr,Bus,['024'],2,0,2,0,36.828442,-76.160045
5403,PRINCESS ANNE & WITCHDUCK,hr,Bus,['025'],2,0,2,0,36.825878,-76.162332
1160,VIRGINIA BEACH & CENTRAL PARK,hr,Bus,"['960_merged_9880525', '960_merged_9880515']",2,0,2,0,36.84334,-76.135377
1243,COLUMBUS & CENTRAL PARK,hr,Bus,"['960_merged_9880525', '960_merged_9880515', '036']",2,0,2,0,36.840971,-76.133828
1059,VIRGINIA BEACH & BEASLEY,hr,Bus,['020'],2,0,2,0,36.843283,-76.128282
1061,VIRGINIA BEACH & THALIA,hr,Bus,['020'],2,0,2,0,36.84319,-76.121293
1063,VIRGINIA BEACH & THALIA STATION,hr,Bus,['020'],2,0,2,0,36.842055,-76.115335
1064,VIRGINIA BEACH & KENTUCKY,hr,Bus,['020'],2,0,2,0,36.840439,-76.110719
5014,COLUMBUS & INDEPENDENCE,hr,Bus,['036'],2,0,2,0,36.840838,-76.135778
5006,CONSTITUTION & COLUMBUS,hr,Bus,['036'],2,0,2,0,36.841386,-76.131029
5694,PARKS & 19TH,hr,Bus,"['960_merged_9880525', '960_merged_9880515', '020', '033']",1,1,2,0,36.846448,-75.98582
5533,PARKS & 21ST,hr,Bus,"['020', '033']",1,1,2,0,36.847459,-75.986083
3777,VIRGINIA BEACH & BIRDNECK,hr,Bus,['020'],1,0,1,0,36.841753,-75.997794
1088,VIRGINIA BEACH & BIRCH LAKE,hr,Bus,['020'],1,0,1,0,36.841959,-75.99292
1090,VIRGINIA BEACH & COLONY,hr,Bus,['020'],1,0,2,0,36.842723,-75.988801
1091,VIRGINIA BEACH & PARKS,hr,Bus,['020'],1,0,2,0,36.843445,-75.984965
1098,VIRGINIA BEACH & JEFFERSON,hr,Bus,['020'],1,0,1,0,36.842854,-75.98917
1100,VIRGINIA BEACH & BIRCH LAKE,hr,Bus,['020'],1,0,1,0,36.841866,-75.994726
3430,PACIFIC & VIRGINIA BEACH,hr,Bus,"['960_merged_9880525', '033']",2,1,2,0,36.845616,-75.975539
5153,PACIFIC & 19TH,hr,Bus,"['960_merged_9880525', '033']",2,1,2,0,36.847486,-75.976046
9349,PACIFIC & 25TH1/2,hr,Bus,"['960_merged_9880525', '960_merged_9880515', '033']",2,2,2,0,36.85367,-75.977693
1486,PACIFIC & 28TH,hr,Bus,"['960_merged_9880525', '960_merged_9880515', '033']",2,2,2,0,36.856109,-75.97836
5535,PACIFIC & 30TH,hr,Bus,"['960_merged_9880525', '960_merged_9880515', '033']",2,1,2,0,36.858546,-75.979022
6066,ARCTIC & 19TH,hr,Bus,"['960_merged_9880515', '020', '033']",2,2,2,0,36.847338,-75.978184
1096,ARCTIC & VIRGINIA BEACH,hr,Bus,"['020', '033']",2,1,2,0,36.845356,-75.97763
3431,PACIFIC & VIRGINIA BEACH,hr,Bus,['020'],2,1,2,0,36.845559,-75.975735
1525,VIRGINIA BEACH & CYPRESS,hr,Bus,['020'],2,1,2,0,36.843796,-75.983513
5718,PACIFIC & 30TH,hr,Bus,['033'],2,2,2,0,36.857584,-75.978953
1282,PACIFIC & 26TH,hr,Bus,['033'],2,2,2,0,36.854385,-75.978086
1600_merged_9880501,MISSY ELLIOTT & AIRLINE,hr,Bus,"['045', '044', '057']",2,0,1,1,36.814394,-76.355536
1600_merged_9880490,MCLEAN & AIRLINE,hr,Bus,"['045', '044', '057']",2,0,1,1,36.814394,-76.355536
5730,PORTSMOUTH & DELAWARE,hr,Bus,['044'],2,0,1,1,36.815442,-76.357498
1617,TURNPIKE & UTAH,hr,Bus,['044'],2,0,1,2,36.819451,-76.347997
3125,TURNPIKE & RODMAN,hr,Bus,['044'],2,0,1,2,36.820265,-76.346675
1597,TURNPIKE & RODMAN,hr,Bus,['044'],2,0,2,2,36.820645,-76.346423
1598,TURNPIKE & UTAH,hr,Bus,['044'],2,0,1,2,36.819237,-76.348762
1599,TURNPIKE & KINGS,hr,Bus,['044'],2,0,1,2,36.816979,-76.352499
5729,PORTSMOUTH & DELAWARE,hr,Bus,['044'],2,0,1,1,36.815734,-76.358205
1601,PORTSMOUTH & MOHAWK,hr,Bus,['044'],2,0,1,1,36.816255,-76.362055
1634,EFFINGHAM & SOUTH,hr,Bus,['045'],2,2,2,2,36.832726,-76.306891
5552,COUNTY & CRABAPPLE,hr,Bus,['050'],2,2,2,2,36.833647,-76.309046
5659,COUNTY & PHOEBUS,hr,Bus,['050'],2,1,2,2,36.83362,-76.311076
1725,ELM & SOUTH,hr,Bus,['050'],2,1,2,2,36.831014,-76.312806
1775,ELM & SOUTH,hr,Bus,['050'],2,1,2,2,36.830597,-76.312632
5550,COUNTY & ELM,hr,Bus,['050'],2,1,2,2,36.833435,-76.312
5551,COUNTY & CRABAPPLE,hr,Bus,['050'],2,2,2,2,36.83351,-76.308906
3384,HIGH & PRIMROSE,hr,Bus,['047'],2,2,2,2,36.83518,-76.312021
1686,HIGH & TWINE,hr,Bus,['047'],2,1,2,2,36.835058,-76.316908
1693,HIGH & RUTH BROWN,hr,Bus,['047'],2,1,1,2,36.834987,-76.32014
1694,HIGH & JAMESTOWN,hr,Bus,['047'],2,0,1,2,36.834855,-76.325215
3793,HIGH & VIRGINIA,hr,Bus,['047'],2,0,2,2,36.834767,-76.329874
3806,HIGH & HARBOR,hr,Bus,['047'],2,0,1,2,36.83462,-76.328205
1714,HIGH & JAMESTOWN,hr,Bus,['047'],2,0,1,2,36.834725,-76.324216
5179,HIGH & YORKTOWN,hr,Bus,['047'],2,0,1,2,36.834766,-76.322812
1712,HIGH & WILLIAMSBURG,hr,Bus,['047'],2,0,1,2,36.834795,-76.320576
5182,HIGH & TWINE,hr,Bus,['047'],2,1,2,2,36.834899,-76.316568
1691,HIGH & ELM,hr,Bus,['047'],2,2,2,2,36.834978,-76.31202
5894,LONDON & JAMESTOWN,hr,Bus,['043'],2,0,1,2,36.837314,-76.324315
1637,EFFINGHAM & BRIGHTON,hr,Bus,['045'],2,1,2,1,36.82621,-76.306505
1640,EFFINGHAM & LINCOLN,hr,Bus,['045'],2,0,2,1,36.824432,-76.306524
1642,EFFINGHAM & FAYETTE,hr,Bus,['045'],2,0,1,1,36.821459,-76.306384
1644,EFFINGHAM & GARFIELD,hr,Bus,['045'],2,0,1,1,36.82022,-76.306254
1646,EFFINGHAM & ARGYLE,hr,Bus,['045'],2,0,1,1,36.819501,-76.306223
1543,PORTSMOUTH & CHESTNUT,hr,Bus,['045'],2,0,1,1,36.818788,-76.307769
1546,PORTSMOUTH & ELM,hr,Bus,['045'],2,0,0,2,36.819337,-76.311721
1885,PORTSMOUTH & ELM,hr,Bus,['045'],2,0,0,2,36.819094,-76.31075
1886,PORTSMOUTH & PEACH,hr,Bus,['045'],2,0,0,2,36.818766,-76.308704
1774,ELM & RANDOLPH,hr,Bus,['050'],2,0,1,2,36.825813,-76.312423
2254,ELM & DUKE,hr,Bus,['050'],2,0,1,2,36.827725,-76.312498
1548,PORTSMOUTH & ACORN,hr,Bus,['045'],1,0,0,2,36.819357,-76.314678
1549,PORTSMOUTH & LANSING,hr,Bus,['045'],1,0,0,2,36.818804,-76.317424
1807,PORTSMOUTH & ROANOKE,hr,Bus,['045'],1,0,0,2,36.81798,-76.32145
1808,PORTSMOUTH & COLUMBUS,hr,Bus,['045'],1,0,0,2,36.817489,-76.323785
1544,PORTSMOUTH & FREDERICK,hr,Bus,['045'],1,0,0,2,36.817255,-76.324326
3349,PORTSMOUTH & STAUNTON,hr,Bus,['045'],1,0,0,2,36.817979,-76.320784
1882,PORTSMOUTH & DES MOINES,hr,Bus,['045'],1,0,0,2,36.818477,-76.318352
1883,PORTSMOUTH & BEECH,hr,Bus,['045'],1,0,0,2,36.819015,-76.315703
1554,GEORGE WASHINGTON & WIRT,hr,Bus,['041'],1,0,0,2,36.813664,-76.313207
5638,PORTSMOUTH & DEEP CREEK,hr,Bus,['045'],1,0,0,2,36.816612,-76.32803
1809,PORTSMOUTH & DAHLIA,hr,Bus,['045'],1,0,0,2,36.816228,-76.331734
1811,PORTSMOUTH & MAGNOLIA,hr,Bus,['045'],1,0,0,0,36.815952,-76.33598
1813,PORTSMOUTH & TRUXTON,hr,Bus,['045'],1,0,0,1,36.815768,-76.339578
1804,PORTSMOUTH & RODMAN,hr,Bus,['045'],1,0,0,1,36.815692,-76.341474
5217,PORTSMOUTH & IVEY,hr,Bus,['045'],1,0,0,1,36.81547,-76.342872
1816,PORTSMOUTH & TRUXTON,hr,Bus,['045'],1,0,0,1,36.815642,-76.339523
1877,PORTSMOUTH & ROYAL,hr,Bus,['045'],1,0,0,0,36.81583,-76.336476
5637,PORTSMOUTH & DAHLIA,hr,Bus,['045'],1,0,0,2,36.816127,-76.331584
1815,PORTSMOUTH & DEEP CREEK,hr,Bus,['045'],1,0,0,2,36.816449,-76.328124
1739,DEEP CREEK & PORTSMOUTH,hr,Bus,['050'],1,0,0,2,36.816062,-76.329052
9375,DEEP CREEK & ELLIOT,hr,Bus,['050'],1,0,0,2,36.814082,-76.329216
1760,DEEP CREEK & PENNOCK,hr,Bus,['050'],1,0,0,2,36.81505,-76.329357
1761,DEEP CREEK & FREDERICK,hr,Bus,['050'],1,0,0,2,36.81761,-76.326922
1647,EFFINGHAM & PORTSMOUTH,hr,Bus,['045'],2,0,1,1,36.819324,-76.30599
1645,EFFINGHAM & JEFFERSON,hr,Bus,['045'],2,0,1,1,36.821901,-76.306117
1641,EFFINGHAM & LINCOLN,hr,Bus,['045'],2,0,2,1,36.824355,-76.306209
1639,EFFINGHAM & HENRY,hr,Bus,['045'],2,1,2,1,36.826841,-76.306365
9418,SEVENTH & MADISON,hr,Bus,['041'],2,0,1,1,36.820853,-76.301132
5807,7TH & JEFFERSON,hr,Bus,['041'],2,0,1,1,36.822804,-76.302164
9399,LINCOLN & 7TH,hr,Bus,['041'],2,0,2,1,36.82476,-76.304344
5691,8TH & JEFFERSON,hr,Bus,['041'],2,0,1,1,36.822177,-76.303187
1553,MADISON & 7TH,hr,Bus,['041'],2,0,1,1,36.820672,-76.301854
2645,PORT CENTRE & PORTSMOUTH,hr,Bus,['041'],2,0,1,1,36.821915,-76.296904
2584,PORT CENTRE & EDWARDS,hr,Bus,['041'],2,0,1,1,36.823041,-76.297585
5887,PORT CENTRE & LINCOLN,hr,Bus,['041'],2,1,2,1,36.827092,-76.299773
2559,PORT CENTRE & LINCOLN,hr,Bus,['041'],2,0,2,1,36.826416,-76.299617
9417,PORT CENTRE & MADISON,hr,Bus,['041'],2,0,1,1,36.822579,-76.297489
5209,PORTSMOUTH & GREEN,hr,Bus,['041'],2,0,1,1,36.818899,-76.30486
1023,VIRGINIA BEACH & CHAPEL,hr,Bus,['020'],2,0,2,2,36.85498,-76.276275
1155,VIRGINIA BEACH & TIDEWATER,hr,Bus,['020'],2,0,2,2,36.854429,-76.273814
1156,VIRGINIA BEACH & CHAPEL,hr,Bus,['020'],2,0,2,2,36.85537,-76.276692
3832,BRAMBLETON & LANDING,hr,Bus,"['018', '013', '009']",2,0,2,1,36.851873,-76.27799
0602,TIDEWATER & PRINCESS ANNE,hr,Bus,['008'],2,0,1,2,36.856093,-76.273958
3833,TIDEWATER & BAGNALL,hr,Bus,['008'],2,0,2,2,36.853572,-76.275112
0521,TIDEWATER & OLNEY,hr,Bus,['008'],2,0,2,2,36.852342,-76.275198
0406,CHURCH & OLNEY,hr,Bus,['004'],2,0,2,1,36.854039,-76.279681
1175,PRINCESS ANNE & CHAPEL,hr,Bus,['023'],2,0,2,2,36.857055,-76.275217
1176,PRINCESS ANNE & TIDEWATER,hr,Bus,['023'],2,0,2,2,36.856217,-76.272609
1609,PORTSMOUTH & WEST CAPRI CIRCLE,hr,Bus,"['044', '967_merged_9880524', '967_merged_9880514']",2,0,1,1,36.821869,-76.421559
5858,PORTSMOUTH & DOCK LANDING,hr,Bus,['044'],2,0,1,1,36.825013,-76.403926
5896,STARMOUNT & JOLLIFF,hr,Bus,['044'],2,0,0,1,36.819103,-76.441083
1608,PORTSMOUTH & TAYLOR,hr,Bus,['044'],2,0,1,1,36.824074,-76.411278
1610,PORTSMOUTH & CAPRI,hr,Bus,['044'],2,0,1,1,36.821331,-76.422381
9404,PORTSMOUTH & TAYLOR,hr,Bus,['044'],2,0,1,1,36.823895,-76.410763
5857,PORTSMOUTH & DOCK LANDING,hr,Bus,['044'],2,0,1,1,36.824829,-76.404268
1625,HIGH & WATSON,hr,Bus,"['044', '047']",2,1,2,2,36.834648,-76.334089
1590,FLORIDA & HIGH,hr,Bus,"['044', '047', '043']",2,1,2,1,36.83503,-76.336932
9468,QUEEN & FLORIDA,hr,Bus,"['044', '043']",2,1,2,1,36.835269,-76.337034
3794,HIGH & CUTHERELL,hr,Bus,['047'],2,0,2,2,36.834688,-76.332271
1695,HIGH & POTOMAC,hr,Bus,['047'],2,2,2,2,36.834528,-76.340345
1696,HIGH & CUMBERLAND,hr,Bus,['047'],2,2,2,2,36.834434,-76.343688
1591,HIGH & WATSON,hr,Bus,"['044', '047']",2,1,2,2,36.834494,-76.334566
1619,TURNPIKE & FREDERICK,hr,Bus,['044'],2,0,2,2,36.826327,-76.336677
1620,TURNPIKE & PRESTON,hr,Bus,['044'],2,0,2,2,36.82837,-76.333271
1622,ROMANESQUE & MARKHAM,hr,Bus,['044'],2,0,2,2,36.831314,-76.331333
1623,CUTHERELL & MCKINLEY,hr,Bus,['044'],2,0,2,2,36.833123,-76.331488
1593,CUTHERELL & MCKINLEY,hr,Bus,['044'],2,0,2,2,36.833073,-76.331683
1594,ROMANESQUE & MARKHAM,hr,Bus,['044'],2,0,2,2,36.831474,-76.331638
1595,TURNPIKE & HOWARD,hr,Bus,['044'],2,0,2,2,36.828028,-76.334273
1596,TURNPIKE & FREDERICK,hr,Bus,['044'],2,0,2,2,36.826382,-76.337072
5945,PORTSMOUTH & HODGES FERRY,hr,Bus,['044'],1,0,0,1,36.821298,-76.390318
1611,PORTSMOUTH & ROBIN,hr,Bus,['044'],1,0,0,1,36.820734,-76.386894
5959,AIRLINE & BEDFORD,hr,Bus,['057'],1,0,1,2,36.803883,-76.385472
1919,AIRLINE & ELMHURST,hr,Bus,['057'],1,0,1,2,36.805063,-76.382437
5960,AIRLINE & BEDFORD,hr,Bus,['057'],1,0,1,2,36.803737,-76.385965
1612,PORTSMOUTH & HAYSOM,hr,Bus,['044'],1,0,1,1,36.819397,-76.379497
1613,PORTSMOUTH & STANLEY,hr,Bus,['044'],1,0,1,1,36.818584,-76.374827
1614,PORTSMOUTH & BYERS,hr,Bus,['044'],1,0,1,1,36.818145,-76.372267
5618,PORTSMOUTH & MOHAWK,hr,Bus,['044'],1,0,1,1,36.81607,-76.362142
1925,AIRLINE & ELMHURST,hr,Bus,['057'],1,0,1,2,36.805614,-76.380108
1926,AIRLINE & LANCER,hr,Bus,['057'],1,0,1,1,36.806492,-76.377244
1927,AIRLINE & CITY PARK,hr,Bus,['057'],1,0,1,1,36.808267,-76.371127
2278,AIRLINE & WESTGATE PLAZA,hr,Bus,['057'],1,0,1,1,36.809782,-76.366765
2284,AIRLINE & CHOWAN,hr,Bus,['057'],1,0,1,1,36.810765,-76.364017
1915,AIRLINE & CHOWAN,hr,Bus,['057'],1,0,1,1,36.810803,-76.364512
1916,AIRLINE & CITY PARK,hr,Bus,['057'],1,0,1,1,36.809467,-76.368194
1917,AIRLINE & KINGS GATE,hr,Bus,['057'],1,0,1,1,36.808392,-76.371253
1918,AIRLINE & LANCER,hr,Bus,['057'],1,0,1,1,36.806574,-76.377339
5909,TURNPIKE & COMMONWEALTH,hr,Bus,['044'],1,0,2,2,36.822562,-76.342826
1618,TURNPIKE & LENORA,hr,Bus,['044'],1,0,2,2,36.823917,-76.340635
9433,TURNPIKE & FAQUIER,hr,Bus,['044'],1,0,2,2,36.823039,-76.342472
1713,HIGH & LOUDOUN,hr,Bus,['047'],1,2,2,2,36.834262,-76.34377
3810,HIGH & POTAMAC,hr,Bus,['047'],1,2,2,2,36.834326,-76.340776
3185,BART & FREDERICK,hr,Bus,['043'],1,1,2,2,36.830633,-76.341278
0272,REDGATE & COLLEY,hr,Bus,"['044', '002']",2,2,2,0,36.863996,-76.30136
0273,COLLEY & RALEIGH,hr,Bus,"['044', '002', '023']",2,2,2,0,36.863123,-76.300238
0205,OLNEY & NORFOLK GENERAL,hr,Bus,"['044', '002', '023']",2,2,2,0,36.861621,-76.302657
0432,COLLEY & RALEIGH,hr,Bus,"['044', '002', '023']",2,2,2,0,36.861916,-76.299617
5779,REDGATE & CHILDRENS WAY,hr,Bus,"['044', '002']",2,2,2,0,36.86409,-76.301378
0756,COLONIAL & BOISSEVAIN,hr,Bus,['011'],2,2,2,0,36.859737,-76.296135
0276,OLNEY & CHRYSLER MUSEUM,hr,Bus,"['011', '002']",2,1,2,0,36.85743,-76.293607
5744,FORT NORFOLK STATION,hr,Bus,"['002', '023']",2,2,2,0,36.859156,-76.304389
5767,COLLEY & FAIRFAX,hr,Bus,"['002', '023']",2,2,2,0,36.859567,-76.300744
0203,OLNEY & COLONIAL,hr,Bus,['002'],2,2,2,0,36.859043,-76.29678
0204,OLNEY & STOCKLEY GARDENS,hr,Bus,['002'],2,2,2,0,36.860112,-76.299225
0275,OLNEY & MOWBRAY ARCH,hr,Bus,['002'],2,2,2,0,36.859415,-76.298056
0430,COLLEY & GRAYDON,hr,Bus,['023'],2,2,2,0,36.865245,-76.299498
0433,COLLEY & GRAYDON,hr,Bus,['023'],2,2,2,0,36.864916,-76.299564
1166,PRINCESS ANNE & MANTEO,hr,Bus,['023'],2,2,2,0,36.864906,-76.297286
1167,PRINCESS ANNE & COLONIAL,hr,Bus,['023'],2,1,2,0,36.863741,-76.294633
8001_merged_9880506,EVMC FORT NORFOLK STATION,hr,Tram,['800'],2,2,2,0,36.858912,-76.303682
8001_merged_9880495,EVMC FORT NORFOLK STATION,hr,Tram,['800'],2,2,2,0,36.858697,-76.30349
1602,PORTSMOUTH & CATAWBA,hr,Bus,['044'],2,0,1,1,36.81717,-76.365793
1603,PORTSMOUTH & BYERS,hr,Bus,['044'],2,0,1,1,36.818257,-76.371914
1605,PORTSMOUTH & ELMHURST,hr,Bus,['044'],2,0,1,1,36.819577,-76.379488
1606,PORTSMOUTH & ROBIN,hr,Bus,['044'],2,0,0,1,36.820914,-76.386885
1607,PORTSMOUTH & BOB WHITE,hr,Bus,['044'],2,0,0,1,36.821478,-76.39009
1604,PORTSMOUTH & JEWELL,hr,Bus,['044'],2,0,1,1,36.818923,-76.375568
0106,PEMBROKE MALL,hr,Bus,"['020', '001', '036', '024']",1,0,2,0,36.847027,-76.129864
5853,VIRGINIA BEACH & CENTRAL PARK,hr,Bus,"['020', '001', '024']",1,0,2,0,36.843642,-76.134276
1125,VIRGINIA BEACH & CONSTITUTION,hr,Bus,['020'],1,0,2,0,36.843645,-76.129002
0103,INDEPENDENCE & JERICHO,hr,Bus,"['001', '024']",1,1,2,0,36.856533,-76.134495
0110,INDEPENDENCE & BROAD,hr,Bus,"['001', '024']",1,0,2,0,36.84663,-76.136571
0111,INDEPENDENCE & HINSDALE,hr,Bus,"['001', '024']",1,0,2,0,36.851923,-76.136206
0112,INDEPENDENCE & CONSTITUTION,hr,Bus,"['001', '024']",1,1,2,0,36.85581,-76.13437
0113,INDEPENDENCE & HESSIAN,hr,Bus,"['001', '024']",1,1,2,0,36.858119,-76.13336
5441,WITCHDUCK & ARAGONA,hr,Bus,['024'],1,0,0,0,36.856651,-76.147223
5460,WITCHDUCK & MERRIMAC,hr,Bus,['024'],1,0,1,0,36.858576,-76.141547
5442,PEMBROKE & MORAINE,hr,Bus,['024'],1,1,1,0,36.861392,-76.137808
5443,PEMBROKE & PEMBROKE LAKE,hr,Bus,['024'],1,1,2,0,36.861942,-76.134512
5405,PEMBROKE & PEMBROKE LAKE,hr,Bus,['024'],1,1,2,0,36.862089,-76.134203
5462,WITCHDUCK & HOLLADAY,hr,Bus,['024'],1,0,1,0,36.858687,-76.1416
1077,VIRGINIA BEACH & EUREKA,hr,Bus,"['020', '029']",2,0,2,0,36.840939,-76.061862
1112,VIRGINIA BEACH & CRIPPLE CREEK,hr,Bus,"['020', '029']",2,0,1,0,36.841223,-76.058426
1068,VIRGINIA BEACH & ROSEMONT,hr,Bus,['020'],2,0,2,0,36.840463,-76.096562
1070,VIRGINIA BEACH & PLAZA TRAIL,hr,Bus,['020'],2,0,2,0,36.841416,-76.089839
1071,VIRGINIA BEACH & KING RICHARD,hr,Bus,['020'],2,0,2,0,36.841746,-76.087578
1072,VIRGINIA BEACH & GROVELAND,hr,Bus,['020'],2,0,2,0,36.842338,-76.083541
1073,VIRGINIA BEACH & KINGS GRANT,hr,Bus,['020'],2,0,2,0,36.843263,-76.077173
1074,VIRGINIA BEACH & LYNNHAVEN,hr,Bus,['020'],2,0,2,0,36.84397,-76.072013
1075,VIRGINIA BEACH & YORKTOWN,hr,Bus,['020'],2,0,2,0,36.84392,-76.0703
1076,VIRGINIA BEACH & FOUNDRY,hr,Bus,['020'],2,0,2,0,36.843036,-76.06743
1114,VIRGINIA BEACH & MUSTANG,hr,Bus,['020'],2,0,2,0,36.842928,-76.066111
1115,VIRGINIA BEACH & YORKTOWN,hr,Bus,['020'],2,0,2,0,36.844211,-76.069864
1370,LYNNHAVEN & SOUTHERN,hr,Bus,['029'],2,0,2,0,36.840386,-76.06361
1406,LYNNHAVEN & SOUTHERN,hr,Bus,['029'],2,0,2,0,36.838421,-76.065084
3351,VIRGINIA BEACH & LYNNHAVEN,hr,Bus,['020'],2,0,2,0,36.844261,-76.072787
1078,VIRGINIA BEACH & HUTTON,hr,Bus,"['020', '029']",2,0,1,0,36.841099,-76.056694
1079,VIRGINIA BEACH & BYRD,hr,Bus,"['020', '029']",2,0,1,0,36.841624,-76.053437
1080,VIRGINIA BEACH & GREAT NECK,hr,Bus,"['020', '029']",2,0,1,0,36.84166,-76.051036
1111,VIRGINIA BEACH & GREAT NECK,hr,Bus,"['020', '029']",2,0,1,0,36.842025,-76.050959
1423,VIRGINIA BEACH & HUTTON,hr,Bus,"['020', '029']",2,0,1,0,36.841579,-76.056243
5989,FIRST COLONIAL & VIRGINIA BEACH,hr,Bus,"['020', '029']",2,0,1,0,36.843483,-76.020828
1161,VIRGINIA BEACH & FIRST COLONIAL,hr,Bus,['020'],2,0,1,0,36.842314,-76.020376
1087,VIRGINIA BEACH & OCEANA,hr,Bus,['020'],2,0,0,0,36.842717,-76.012294
1313,VIRGINIA BEACH & DOZIER,hr,Bus,['020'],2,0,0,0,36.842632,-76.006384
1102,VIRGINIA BEACH & DOZIER,hr,Bus,['020'],2,0,0,0,36.842752,-76.006666
1103,VIRGINIA BEACH & GARCIA,hr,Bus,['020'],2,0,0,0,36.8428,-76.010702
3788,VIRGINIA BEACH & WEST,hr,Bus,['020'],2,0,1,0,36.84248,-76.01787
5058,VIRGINIA BEACH & FIRST COLONIAL,hr,Bus,['020'],2,0,1,0,36.84257,-76.020545
3790,VIRGINIA BEACH & FIRST COLONIAL,hr,Bus,['029'],2,0,1,0,36.842713,-76.022374
1105,FIRST COLONIAL & DONNA,hr,Bus,"['020', '029']",2,0,2,0,36.848192,-76.021369
1085,FIRST COLONIAL & LASKIN,hr,Bus,"['020', '029']",2,0,2,0,36.84964,-76.022039
1086,FIRST COLONIAL & DONNA,hr,Bus,"['020', '029']",2,0,2,0,36.847005,-76.021319
1082,LASKIN & REGENCY,hr,Bus,['020'],2,0,2,0,36.84825,-76.033084
1083,LASKIN & VILLAGE,hr,Bus,['020'],2,0,2,0,36.849246,-76.028711
1307,NEWTOWN & ELAM,hr,Bus,"['020', '027', '022']",1,1,2,0,36.851329,-76.178571
3352,NEWTOWN & ELAM,hr,Bus,"['020', '027', '022']",1,1,2,0,36.851587,-76.178684
1034,VIRGINIA BEACH & FAIR MEADOWS,hr,Bus,['020'],1,1,2,0,36.853398,-76.175926
1048,VIRGINIA BEACH & DAVIS,hr,Bus,['020'],1,0,2,0,36.851974,-76.172456
1049,VIRGINIA BEACH & TOY,hr,Bus,['020'],1,0,2,0,36.850446,-76.16862
1050,VIRGINIA BEACH & CLEARFIELD,hr,Bus,['020'],1,0,2,0,36.848857,-76.164765
1052,VIRGINIA BEACH & NORTHRIDGE,hr,Bus,['020'],1,0,2,0,36.84711,-76.160489
1053,VIRGINIA BEACH & WITCHDUCK,hr,Bus,['020'],1,0,2,0,36.846127,-76.158123
1132,VIRGINIA BEACH & WITCHDUCK,hr,Bus,['020'],1,0,2,0,36.846154,-76.157065
5984,VIRGINIA BEACH & NORTHRIDGE,hr,Bus,['020'],1,0,2,0,36.847542,-76.160467
1133,VIRGINIA BEACH & CLEARFIELD,hr,Bus,['020'],1,0,2,0,36.849268,-76.164761
1134,VIRGINIA BEACH & WEXFORD,hr,Bus,['020'],1,0,2,0,36.850697,-76.16825
1135,VIRGINIA BEACH & DAVIS,hr,Bus,['020'],1,0,2,0,36.852585,-76.172959
5455,WITCHDUCK & WHITAKER,hr,Bus,['024'],1,0,1,0,36.851791,-76.154509
5410,WITCHDUCK & CLEVELAND,hr,Bus,['024'],1,0,2,0,36.843232,-76.157874
5780,NEWTOWN & VIRGINIA BEACH,hr,Bus,"['027', '022']",1,0,2,0,36.857007,-76.176883
5854,NEWTOWN & CONNIE,hr,Bus,['022'],1,0,1,0,36.861473,-76.173253
1308,NEWTOWN & ETHAN ALLEN,hr,Bus,"['020', '027', '022']",2,1,2,0,36.849979,-76.17947
0916,MILITARY CIRCLE MALL,hr,Bus,"['020', '025', '023', '015']",2,0,2,1,36.852734,-76.20335
1040,GLENROCK & VIRGINIA BEACH,hr,Bus,"['020', '025', '023', '015']",2,1,2,1,36.854531,-76.202827
2138,VIRGINIA BEACH & POPLAR HALL,hr,Bus,"['020', '025']",2,1,2,0,36.855204,-76.198733
1042,VIRGINIA BEACH & KEMPSVILLE,hr,Bus,"['020', '025']",2,2,2,0,36.855051,-76.194559
1290,KEMPSVILLE & KEMPSVILLE CIRCLE,hr,Bus,"['020', '025']",2,2,2,0,36.85213,-76.192495
3773,KEMPSVILLE & NORTH CENTER,hr,Bus,"['020', '025']",2,2,2,0,36.8493,-76.191547
1301,KEMPSVILLE & KEMPSVILLE CIR,hr,Bus,"['020', '025']",2,2,2,0,36.849341,-76.19131
1302,KEMPSVILLE & WELLVILLE,hr,Bus,"['020', '025']",2,2,2,0,36.853203,-76.192891
1139,VIRGINIA BEACH & KEMPSVILLE,hr,Bus,"['020', '025']",2,2,2,0,36.855377,-76.195348
1140,VIRGINIA BEACH & BURLING,hr,Bus,"['020', '025']",2,1,2,0,36.855501,-76.199297
1141,VIRGINIA BEACH & GLENROCK,hr,Bus,"['020', '025']",2,1,2,0,36.855555,-76.200357
2753,VIRGINIA BEACH & MILITARY,hr,Bus,"['020', '023', '015']",2,0,2,1,36.855619,-76.207357
1142,VIRGINIA BEACH & MILITARY,hr,Bus,['020'],2,0,2,1,36.855715,-76.206942
3128,NORTH CENTER & KEMPSVILLE,hr,Bus,['025'],2,1,2,0,36.848034,-76.189555
3129,NORTH CENTER & CENTER,hr,Bus,['025'],2,1,2,0,36.848122,-76.187307
0633,CENTER & NEWTOWN,hr,Bus,['025'],2,1,2,0,36.847144,-76.183249
3219,NORTH CENTER & CENTER,hr,Bus,['025'],2,1,2,0,36.847385,-76.185879
3346,NORTH CENTER & KEMPSVILLE,hr,Bus,['025'],2,1,2,0,36.848078,-76.189627
5737,MILITARY btwn POPLAR HALL & MALL ENTRANCE,hr,Bus,"['023', '015']",2,0,2,1,36.850402,-76.20983
0938,JANAF SHOPPING CENTER,hr,Bus,"['023', '015']",2,1,2,1,36.85935,-76.206409
1204,LOWERY & WALMART,hr,Bus,['023'],2,2,2,1,36.864181,-76.208121
1205,LOWERY & KEMPSVILLE,hr,Bus,['023'],2,2,2,1,36.865813,-76.20518
1202,LOWERY & KEMPSVILLE,hr,Bus,['023'],2,2,2,1,36.865899,-76.205238
1203,LOWERY & MILITARY,hr,Bus,['023'],2,2,2,1,36.864327,-76.208145
0914,JANAF SHOPPING CENTER,hr,Bus,"['023', '015']",2,1,2,1,36.859316,-76.206575
0917,POPLAR HALL & HONAKER,hr,Bus,"['023', '015']",2,0,2,1,36.849882,-76.201698
5198,POPLAR HALL & FRIZZELL,hr,Bus,"['023', '015']",2,0,2,1,36.849095,-76.204345
0918,POPLAR HALL & MILITARY,hr,Bus,"['023', '015']",2,0,2,1,36.848941,-76.208106
5847,MILITARY & LOWERY,hr,Bus,['015'],2,2,2,1,36.863759,-76.210264
0939,MILITARY & LAKE HERBERT,hr,Bus,['015'],2,1,2,1,36.868902,-76.210992
1025,VIRGINIA BEACH & MARSHALL,hr,Bus,['020'],2,1,2,2,36.85223,-76.267586
1026,VIRGINIA BEACH & COVENANT,hr,Bus,['020'],2,1,2,2,36.851866,-76.264053
1028,VIRGINIA BEACH & OAKLAWN,hr,Bus,['020'],2,2,1,2,36.852061,-76.259239
1153,VIRGINIA BEACH & COVENANT,hr,Bus,['020'],2,1,2,2,36.852107,-76.263654
1154,VIRGINIA BEACH & MARSHALL,hr,Bus,['020'],2,1,2,2,36.852451,-76.267508
1223,PRINCESS ANNE & RAINEY,hr,Bus,['023'],2,1,1,2,36.854476,-76.2613
1224,PRINCESS ANNE & PARK,hr,Bus,['023'],2,1,1,2,36.854016,-76.264021
1225,PRINCESS ANNE & MARSHALL,hr,Bus,['023'],2,1,1,2,36.854358,-76.266224
1226,PRINCESS ANNE & MALTBY,hr,Bus,['023'],2,0,1,2,36.854951,-76.268081
1177,PRINCESS ANNE & HANSON,hr,Bus,['023'],2,0,1,2,36.8549,-76.268538
1179,PRINCESS ANNE & PARK,hr,Bus,['023'],2,1,1,2,36.853868,-76.263934
1180,PRINCESS ANNE & RAINEY,hr,Bus,['023'],2,1,1,2,36.854397,-76.260958
0709,CORPREW & COVENANT,hr,Bus,['009'],2,1,2,2,36.850557,-76.264106
5073,BALLENTINE & LRT STATION,hr,Bus,['018'],2,1,1,2,36.846696,-76.252515
5740,BALLENTINE & LRT STATION,hr,Bus,['018'],2,1,1,2,36.847264,-76.252574
0713,BRAMBLETON & MARSHALL,hr,Bus,"['018', '013', '009']",2,0,2,2,36.847086,-76.27133
0825,BRAMBLETON & PARK,hr,Bus,"['018', '013']",2,0,2,2,36.84606,-76.269996
0711,PARK & BOND,hr,Bus,['009'],2,1,2,2,36.849592,-76.26785
0712,PARK & OLNEY,hr,Bus,['009'],2,1,2,2,36.847872,-76.269423
0615,PARK & PRESIDENTIAL,hr,Bus,['009'],2,0,2,2,36.84705,-76.269877
0616,PARK & BOND,hr,Bus,['009'],2,1,2,2,36.849031,-76.268087
2120,CORPREW & JOSEPH,hr,Bus,['009'],2,1,2,2,36.850522,-76.265292
0618,CORPREW & PRESIDENTIAL,hr,Bus,['009'],2,2,2,2,36.850452,-76.261019
8007_merged_9880505,NSU STATION,hr,Tram,['800'],2,0,2,2,36.845863,-76.269529
8007_merged_9880494,NSU STATION,hr,Tram,['800'],2,0,2,2,36.845864,-76.269374
1030,VIRGINIA BEACH & NORCHESTER,hr,Bus,['020'],1,2,1,2,36.852202,-76.25529
1031,VIRGINIA BEACH & MERRIMAC,hr,Bus,['020'],1,1,2,2,36.852261,-76.253039
1032,VIRGINIA BEACH & BELLMORE,hr,Bus,['020'],1,1,2,1,36.852564,-76.250035
1033,VIRGINIA BEACH & BALLENTINE,hr,Bus,['020'],1,1,2,1,36.852798,-76.248429
9235,BALLENTINE & VIRGINIA BEACH,hr,Bus,"['018', '009']",1,1,2,1,36.852134,-76.248068
0622,BALLENTINE & MIDDLE TOWNE,hr,Bus,['018'],1,1,1,2,36.848317,-76.250752
2968,BALLENTINE & LAKEBRIDGE,hr,Bus,['018'],1,1,1,2,36.848299,-76.250278
0692,BALLENTINE & CONNECTOR,hr,Bus,"['018', '009']",1,1,2,1,36.851749,-76.24788
0703,CORPREW & BALLENTINE,hr,Bus,['009'],1,1,1,2,36.850199,-76.249316
0704,CORPREW & GATE HOUSE,hr,Bus,['009'],1,1,1,2,36.850656,-76.251627
0705,CORPREW & NORCHESTER,hr,Bus,['009'],1,2,1,2,36.850584,-76.255369
0706,CORPREW & MAJESTIC,hr,Bus,['009'],1,2,1,2,36.850538,-76.257664
0620,CORPREW & MAJESTIC,hr,Bus,['009'],1,2,1,2,36.850469,-76.257229
3023,CORPREW & NORCHESTER,hr,Bus,['009'],1,2,1,2,36.850511,-76.254837
0621,CORPREW & GATE HOUSE,hr,Bus,['009'],1,1,1,2,36.850587,-76.251315
0636,VIRGINIA BEACH & INGLESIDE,hr,Bus,"['020', '009']",2,0,2,1,36.854527,-76.238818
0637,VIRGINIA BEACH & NORFOLK SQUARE,hr,Bus,['020'],2,0,2,1,36.855261,-76.234851
0638,VIRGINIA BEACH & AZALEA GARDEN,hr,Bus,['020'],2,0,2,1,36.855631,-76.232966
0634,SCOTT & VIRGINIA BEACH,hr,Bus,['009'],2,0,2,1,36.853195,-76.241958
0635,GATLING & TRICI,hr,Bus,['009'],2,0,1,1,36.849899,-76.239941
0691,GATLING & WAKEFIELD,hr,Bus,['009'],2,0,1,1,36.849931,-76.237821
8009,INGLESIDE ROAD STATION,hr,Tram,['800'],2,0,0,1,36.842736,-76.23502
1036,VIRGINIA BEACH & JETT,hr,Bus,['020'],2,0,2,1,36.856264,-76.224764
1037,VIRGINIA BEACH & PECAN POINT,hr,Bus,['020'],2,0,2,2,36.8561,-76.221527
1038,VIRGINIA BEACH & ROUND BAY,hr,Bus,['020'],2,0,2,1,36.855939,-76.217389
1039,VIRGINIA BEACH & BRIAR HILL,hr,Bus,['020'],2,0,2,1,36.855856,-76.214256
9558,MILITARY HWY STATION,hr,Bus,"['967_merged_9880524', '967_merged_9880514', '023', '015']",2,0,2,2,36.841557,-76.21357
1913,MILITARY & POPLAR HALL,hr,Bus,"['023', '015']",2,0,2,1,36.84831,-76.210318
3306,CORPORATE & MILITARY,hr,Bus,"['023', '015']",2,0,1,2,36.836942,-76.211632
3307,CORPORATE & ORION,hr,Bus,"['023', '015']",2,0,1,2,36.84028,-76.214037
0919,MILITARY & CORPORATE,hr,Bus,['015'],2,0,1,2,36.835777,-76.21073
8010,MILITARY HIGHWAY STATION,hr,Tram,['800'],2,0,2,2,36.841494,-76.213125
1055,VIRGINIA BEACH & OPAL,hr,Bus,['020'],2,0,2,0,36.84358,-76.150166
1056,VIRGINIA BEACH & ARAGONA,hr,Bus,['020'],2,0,2,0,36.843536,-76.146669
1057,VIRGINIA BEACH & HORACE,hr,Bus,['020'],2,0,2,0,36.843489,-76.143308
1058,VIRGINIA BEACH & FIRST,hr,Bus,['020'],2,0,2,0,36.84343,-76.140587
1340,INDEPENDENCE & COLUMBUS,hr,Bus,['036'],2,0,0,0,36.840211,-76.137112
5444,WITCHDUCK & CLEVELAND,hr,Bus,['024'],2,0,2,0,36.842732,-76.157818
1065,VIRGINIA BEACH & LYNN SHORES,hr,Bus,['020'],1,0,2,0,36.839835,-76.108137
1067,VIRGINIA BEACH & STRIP MALL,hr,Bus,['020'],1,0,2,0,36.839739,-76.103101
1434,INDEPENDENCE & BONNEY,hr,Bus,['036'],2,0,2,0,36.839416,-76.136671
1092,VIRGINIA BEACH & CYPRESS,hr,Bus,['020'],2,1,2,0,36.84373,-75.98315
5536,PACIFIC & 11TH,hr,Bus,['033'],2,0,2,0,36.839476,-75.974046
5716,GENERAL BOOTH & CROATAN,hr,Bus,['033'],2,0,0,0,36.823252,-75.978212
1483,GENERAL BOOTH & RUDEE POINT,hr,Bus,['033'],2,0,1,0,36.828797,-75.973677
1285,PACIFIC & 6TH,hr,Bus,['033'],2,0,1,0,36.834809,-75.972568
1286,PACIFIC & 11TH,hr,Bus,['033'],2,0,2,0,36.839186,-75.973786
1287,PACIFIC & 16TH,hr,Bus,['033'],2,1,2,0,36.844028,-75.975143
1250,PACIFIC & WINSTON SALEM,hr,Bus,['033'],2,0,1,0,36.833637,-75.972374
1489,GENERAL BOOTH & HARBOUR,hr,Bus,['033'],2,0,1,0,36.828802,-75.97399
1106,LASKIN & HILLTOP,hr,Bus,['020'],1,0,2,0,36.850485,-76.024715
1107,LASKIN & VICTOR,hr,Bus,['020'],1,0,2,0,36.84977,-76.02831
1108,LASKIN & REGENCY,hr,Bus,['020'],1,0,2,0,36.848185,-76.03408
5152,FIRST COLONIAL & WOLFSNARE,hr,Bus,['029'],1,1,2,0,36.854679,-76.024397
5936,VIRGINIA BEACH & KINGS GRANT,hr,Bus,['020'],1,0,2,0,36.843489,-76.078003
1116,VIRGINIA BEACH & CRANSTON,hr,Bus,['020'],1,0,2,0,36.842837,-76.082527
1118,VIRGINIA BEACH & KING RICHARD,hr,Bus,['020'],1,0,2,0,36.842014,-76.088239
1119,VIRGINIA BEACH & LITTLE NECK,hr,Bus,['020'],1,0,2,0,36.841375,-76.09257
1163,VIRGINIA BEACH & ROSEMONT,hr,Bus,['020'],1,0,2,0,36.840348,-76.099601
1162,VIRGINIA BEACH & BIRCHWOOD MALL,hr,Bus,['020'],1,0,2,0,36.840084,-76.10198
1120,VIRGINIA BEACH & LYNN SHORES,hr,Bus,['020'],1,0,2,0,36.840172,-76.10825
1122,VIRGINIA BEACH & KENTUCKY,hr,Bus,['020'],1,0,2,0,36.841741,-76.113364
1123,VIRGINIA BEACH & STEPNEY,hr,Bus,['020'],1,0,2,0,36.843227,-76.117474
1124,VIRGINIA BEACH & THALIA,hr,Bus,['020'],1,0,2,0,36.843539,-76.121585
1126,VIRGINIA BEACH & SECOND,hr,Bus,['020'],1,0,2,0,36.843764,-76.138234
1127,VIRGINIA BEACH & KELLAM,hr,Bus,['020'],1,0,2,0,36.84385,-76.14149
1128,VIRGINIA BEACH & ARAGONA,hr,Bus,['020'],1,0,2,0,36.843893,-76.146385
1129,VIRGINIA BEACH & DORSET,hr,Bus,['020'],1,0,2,0,36.844005,-76.151074
1130,VIRGINIA BEACH & SOUTHGATE,hr,Bus,['020'],1,0,2,0,36.84527,-76.154899
0104,INDEPENDENCE & HINSDALE,hr,Bus,"['001', '024']",1,0,2,0,36.851946,-76.136708
0105,INDEPENDENCE & JEANNE,hr,Bus,"['001', '024']",1,0,2,0,36.848907,-76.136948
5439,WITCHDUCK & RICHARD,hr,Bus,['024'],1,0,2,0,36.847871,-76.155469
5459,WITCHDUCK & WITCHDUCK CT,hr,Bus,['024'],1,0,1,0,36.852357,-76.154071
5409,WITCHDUCK & VIRGINIA BEACH,hr,Bus,['024'],1,0,2,0,36.847172,-76.155881
5440,WITCHDUCK & LAVENDER,hr,Bus,['024'],1,0,1,0,36.854362,-76.152816
1143,VIRGINIA BEACH & BRIAR HILL,hr,Bus,['020'],1,0,2,1,36.856077,-76.215221
1144,VIRGINIA BEACH & RABY,hr,Bus,['020'],1,0,2,2,36.856325,-76.220082
5733,VIRGINIA BEACH & JETT,hr,Bus,['020'],1,0,2,1,36.856488,-76.224347
5706,MILITARY & LAKE HERBERT,hr,Bus,['015'],1,1,2,1,36.86803,-76.21126
0913,MILITARY & LOWERY,hr,Bus,['015'],1,1,2,1,36.86537,-76.210891
0688,VIRGINIA BEACH & AZALEA GARDEN,hr,Bus,"['020', '009']",2,0,2,1,36.855881,-76.233096
0689,VIRGINIA BEACH & KINGWOOD,hr,Bus,"['020', '009']",2,0,2,1,36.855228,-76.236696
0690,VIRGINIA BEACH & INGLESIDE,hr,Bus,"['020', '009']",2,0,2,1,36.854454,-76.24075
2139,BALLENTINE & MAPLETON,hr,Bus,['018'],2,0,2,1,36.854279,-76.248393
2341,BALLENTINE & PRINCESS ANNE,hr,Bus,['018'],2,0,2,1,36.859053,-76.249399
0685,AZALEA GARDEN & PRINCESS ANNE,hr,Bus,['009'],2,0,2,1,36.86627,-76.235243
0686,AZALEA GARDEN & VILLAGE,hr,Bus,['009'],2,0,2,1,36.86129,-76.233844
0639,AZALEA GARDEN & VIRGINIA BEACH,hr,Bus,['009'],2,0,2,1,36.857022,-76.232564
0640,AZALEA GARDEN & VILLAGE,hr,Bus,['009'],2,0,2,1,36.862216,-76.234205
0641,AZALEA GARDEN & PRINCESS ANNE,hr,Bus,['009'],2,0,2,1,36.866156,-76.235118
1214,PRINCESS ANNE & EARLY,hr,Bus,['023'],2,0,2,1,36.867186,-76.23151
0993,PRINCESS ANNE & CROMWELL,hr,Bus,['023'],2,0,2,1,36.861384,-76.247618
0994,PRINCESS ANNE & INGLESIDE,hr,Bus,['023'],2,0,2,1,36.862407,-76.245401
0995,PRINCESS ANNE & ARKANSAS,hr,Bus,['023'],2,0,2,1,36.863345,-76.243372
1188,PRINCESS ANNE & NEVADA,hr,Bus,['023'],2,0,2,1,36.864394,-76.24089
1190,PRINCESS ANNE & AZALEA GARDEN,hr,Bus,['023'],2,0,2,1,36.866623,-76.235142
1192,PRINCESS ANNE & JUNIPER,hr,Bus,['023'],2,0,2,0,36.867058,-76.231113
2128,PRINCESS ANNE & AZALEA GARDEN,hr,Bus,['023'],2,0,2,1,36.867053,-76.233633
0682,SEWELLS POINT & LITTLE JOHN,hr,Bus,['009'],2,0,2,0,36.87885,-76.233497
0683,SEWELLS POINT & WOOLSEY,hr,Bus,['009'],2,0,2,0,36.875194,-76.232889
0960,SEWELLS POINT & DENVER,hr,Bus,['009'],2,0,2,0,36.871495,-76.232282
0684,AZALEA GARDEN & EARLY,hr,Bus,['009'],2,0,2,0,36.868928,-76.233515
0642,AZALEA GARDEN & EARLY,hr,Bus,['009'],2,0,2,0,36.868798,-76.233424
0371,CHESAPEAKE & NOTTAWAY,hr,Bus,['003'],2,0,1,2,36.880122,-76.248374
0372,CHESAPEAKE & ROBIN HOOD,hr,Bus,['003'],2,0,1,1,36.878882,-76.2496
0302,CHESAPEAKE & ROBINHOOD,hr,Bus,['003'],2,0,1,1,36.878538,-76.24956
0304,CHESAPEAKE & BUCKINGHAM,hr,Bus,['003'],2,0,1,2,36.881237,-76.247307
1216,PRINCESS ANNE & FAIRBANKS,hr,Bus,['023'],2,0,2,1,36.865882,-76.238234
1217,PRINCESS ANNE & MINNESOTA,hr,Bus,['023'],2,0,2,1,36.864819,-76.24053
5752,PRINCESS ANNE & INGLESIDE,hr,Bus,['023'],2,0,2,1,36.862159,-76.246335
1147,VIRGINIA BEACH & GODFREY,hr,Bus,['020'],2,1,2,1,36.852756,-76.249892
1148,VIRGINIA BEACH & MERRIMAC,hr,Bus,['020'],2,1,2,2,36.852445,-76.252759
1149,VIRGINIA BEACH & NORCHESTER,hr,Bus,['020'],2,2,1,2,36.852348,-76.255476
1151,VIRGINIA BEACH & OAKLAWN,hr,Bus,['020'],2,2,1,2,36.852202,-76.258933
2288,BALLENTINE & PRINCESS ANNE,hr,Bus,['018'],2,0,2,1,36.859041,-76.249545
5974,BALLENTINE & HOLLISTER,hr,Bus,['018'],2,0,2,1,36.855491,-76.248898
3407,BALLENTINE & WOODLAND,hr,Bus,['018'],2,1,2,1,36.854008,-76.248475
0997,BALLENTINE & HOLLISTER,hr,Bus,['018'],2,0,2,1,36.85546,-76.248711
1221,PRINCESS ANNE & MERRIMAC,hr,Bus,['023'],2,1,1,1,36.857275,-76.254011
1222,PRINCESS ANNE & GRAND BASSA,hr,Bus,['023'],2,1,1,2,36.85561,-76.256915
1183,PRINCESS ANNE & MAJESTIC,hr,Bus,['023'],2,1,1,2,36.855045,-76.257796
1185,PRINCESS ANNE & MERRIMAC,hr,Bus,['023'],2,1,1,1,36.857307,-76.253686
1186,PRINCESS ANNE & BALLENTINE,hr,Bus,['023'],2,0,2,1,36.859496,-76.250324
2637,HANBURY & BALLENTINE,hr,Bus,['018'],2,0,1,2,36.873315,-76.25257
0988,BALLENTINE & PETERSON,hr,Bus,['018'],2,0,1,2,36.87143,-76.25256
0990,BALLENTINE & TAIT,hr,Bus,['018'],2,0,1,2,36.867802,-76.251711
2998,BALLENTINE & MCLEMORE,hr,Bus,['018'],2,0,1,1,36.865971,-76.25127
0992,BALLENTINE & TARRANT,hr,Bus,['018'],2,0,1,1,36.863104,-76.250534
1000,BALLENTINE & TARRANT,hr,Bus,['018'],2,0,1,1,36.862514,-76.25024
2989,BALLENTINE & DANA,hr,Bus,['018'],2,0,1,1,36.864119,-76.25064
1001,BALLENTINE & TAIT,hr,Bus,['018'],2,0,1,2,36.867624,-76.251508
1003,BALLENTINE & PETERSON,hr,Bus,['018'],2,0,1,2,36.871243,-76.252409
1004,BALLENTINE & HANBURY,hr,Bus,['018'],2,0,1,2,36.873124,-76.252905
0300,CHESAPEAKE & CROMWELL,hr,Bus,"['018', '003']",2,0,1,1,36.875535,-76.252477
1219,PRINCESS ANNE & GRANDY,hr,Bus,['023'],2,0,2,1,36.860573,-76.249082
1912,PRINCESS ANNE & VINCENT,hr,Bus,['023'],2,0,2,1,36.85934,-76.250805
3882,WESTMINSTER & BALLENTINE,hr,Bus,['018'],2,1,1,2,36.844798,-76.249984
3884,WESTMINSTER & CHICK,hr,Bus,['018'],2,0,0,2,36.844338,-76.248001
3030,KIMBALL & WILEY,hr,Bus,['018'],2,0,0,2,36.842798,-76.245848
3885,KIMBALL & KIMBALL,hr,Bus,['018'],2,0,0,2,36.843206,-76.247332
3847,KIMBALL & COURT,hr,Bus,['018'],2,0,0,2,36.843335,-76.24912
0630,KIMBALL & BALLENTINE,hr,Bus,['018'],2,1,1,2,36.842237,-76.253851
0699,KIMBALL & MAJESTIC,hr,Bus,['018'],2,1,0,2,36.84283,-76.257621
0700,KIMBALL & FORBES,hr,Bus,['018'],2,0,1,2,36.843253,-76.260715
0627,KIMBALL & FORBES,hr,Bus,['018'],2,0,1,2,36.84309,-76.260429
0628,KIMBALL & MAJESTIC,hr,Bus,['018'],2,0,0,2,36.842751,-76.25788
3026,KIMBALL & COURT,hr,Bus,['018'],2,0,0,2,36.843227,-76.248912
3027,KIMBALL & KIMBALL,hr,Bus,['018'],2,0,0,2,36.843047,-76.247337
3025,KIMBALL & WILEY,hr,Bus,['018'],2,0,0,2,36.842691,-76.245828
5971,WESTMINSTER & CHICK,hr,Bus,['018'],2,1,0,2,36.844508,-76.248252
8008,BALLENTINE BROAD CREEK STATION,hr,Tram,['800'],2,1,1,2,36.84619,-76.253188
0507,LIBERTY & SEABOARD,hr,Bus,"['013', '006', '012', '058']",2,0,2,2,36.823061,-76.275027
3829,LIBERTY & 20TH,hr,Bus,"['013', '006', '012', '058']",2,0,2,2,36.820831,-76.27301
5344,LIBERTY & 20TH,hr,Bus,"['013', '006', '012', '058']",2,0,2,2,36.821405,-76.273426
3830,LIBERTY & SEABOARD,hr,Bus,"['013', '006']",2,0,2,2,36.819457,-76.271235
1830,POINDEXTER & B,hr,Bus,['058'],2,0,2,2,36.818771,-76.272952
1832,POINDEXTER & RODGERS,hr,Bus,['058'],2,0,2,2,36.817887,-76.274672
1874,POINDEXTER & STEWART,hr,Bus,['058'],2,0,2,2,36.816993,-76.276467
1833,POINDEXTER & STEWART,hr,Bus,['058'],2,0,2,2,36.816373,-76.277522
1875,POINDEXTER & JACKSON,hr,Bus,['058'],2,0,2,2,36.818145,-76.273925
0485,MILITARY & CAMPOSTELLA,hr,Bus,"['013', '057']",1,0,1,1,36.778532,-76.266574
1798,MILITARY & CANADIAN,hr,Bus,['057'],1,0,1,1,36.776832,-76.26966
0488,ROBERT HALL & MILITARY,hr,Bus,"['013', '006', '057', '024', '014', '015']",1,0,1,1,36.786824,-76.256215
0489,BATTLEFIELD & ROBERT HALL,hr,Bus,"['013', '006', '057', '024', '014', '015']",1,0,1,1,36.786491,-76.259424
0490,MILITARY & BATTLEFIELD,hr,Bus,"['013', '057']",1,0,1,1,36.780295,-76.264009
0491,MILITARY & CAMPOSTELLA,hr,Bus,"['013', '057']",1,0,1,1,36.779002,-76.266311
5454,CAMPOSTELLA & BROAD,hr,Bus,['013'],1,0,1,1,36.798686,-76.257604
5514,CAMPOSTELLA & DEXTER,hr,Bus,['013'],1,0,1,1,36.796418,-76.258621
0480,CAMPOSTELLA & MARK,hr,Bus,['013'],1,0,1,2,36.792868,-76.259941
5512,CAMPOSTELLA & DIAMOND HILL,hr,Bus,['013'],1,0,1,2,36.789258,-76.263101
0482,CAMPOSTELLA & PORTLOCK,hr,Bus,['013'],1,0,1,1,36.784949,-76.266691
0483,CAMPOSTELLA & CORAL,hr,Bus,['013'],1,0,1,1,36.782563,-76.267881
0492,CAMPOSTELLA & WAKE,hr,Bus,['013'],1,0,1,1,36.780283,-76.268343
0493,CAMPOSTELLA & PORTLOCK,hr,Bus,['013'],1,0,1,1,36.785986,-76.265848
0494,CAMPOSTELLA & DIAMOND HILL,hr,Bus,['013'],1,0,1,2,36.788324,-76.263814
0495,CAMPOSTELLA & MARK,hr,Bus,['013'],1,0,1,2,36.792336,-76.259924
5958,CAMPOSTELLA & DEXTER,hr,Bus,['013'],1,0,1,1,36.796582,-76.258351
0496,CAMPOSTELLA & BROAD,hr,Bus,['013'],1,0,1,1,36.798439,-76.257514
5452,ATLANTIC & CAMPOSTELLA,hr,Bus,['006'],1,0,1,2,36.792427,-76.260816
5453,ATLANTIC & CAMPOSTELLA,hr,Bus,['006'],1,0,1,2,36.793237,-76.260713
9710,ATLANTIC & BROAD,hr,Bus,['006'],1,0,1,1,36.799557,-76.262197
1800,MILITARY & CANADIAN,hr,Bus,['057'],1,0,1,1,36.776719,-76.270307
1431,EXECUTIVE & DEVRY,hr,Bus,"['013', '006', '024', '014']",1,0,2,0,36.77036,-76.237562
4012,EXECUTIVE & EDEN WAY,hr,Bus,"['013', '006', '024', '014']",1,0,2,0,36.771138,-76.238594
5963,BATTLEFIELD & COASTAL,hr,Bus,"['013', '006', '014']",1,0,2,0,36.76666,-76.251709
1060,VOLVO & BRAY,hr,Bus,"['013', '006', '014']",1,0,2,0,36.765084,-76.247031
1110,VOLVO & CROSSWAYS,hr,Bus,"['013', '006', '014']",1,0,2,0,36.76742,-76.240213
1200,VOLVO & SUMMIT POINTE,hr,Bus,"['013', '006', '014']",1,0,2,0,36.767623,-76.238822
1509,CROSSWAYS & EDEN WAY,hr,Bus,"['013', '006']",1,0,2,0,36.770473,-76.244477
5425,WOODLAKE & SENTINEL,hr,Bus,"['024', '014']",1,0,2,0,36.779819,-76.252207
4007,CROSSWAYS & JARMAN,hr,Bus,"['024', '014']",1,0,2,0,36.779591,-76.233463
4008,CROSSWAYS & STEPHANIE,hr,Bus,"['024', '014']",1,0,2,0,36.780813,-76.238074
4006,KRISTINA & CROSSWAYS,hr,Bus,"['024', '014']",1,0,2,0,36.775547,-76.24029
4009,EXECUTIVE & EDEN WAY,hr,Bus,"['024', '014']",1,0,2,0,36.770895,-76.238717
4010,VOLVO & PROGRESSIVE,hr,Bus,['024'],1,0,2,0,36.768038,-76.231619
4011,VOLVO & PROGRESSIVE,hr,Bus,['024'],1,0,2,0,36.768309,-76.231613
4005,KRISTINA & CROSSWAYS,hr,Bus,"['024', '014']",1,0,2,0,36.775036,-76.239912
4016,CROSSWAYS & KRISTINA,hr,Bus,['024'],1,0,2,0,36.778365,-76.240357
4013,CROSSWAYS & STEPHANIE,hr,Bus,"['024', '014']",1,0,2,0,36.780403,-76.23829
4014,CROSSWAYS & JARMAN,hr,Bus,"['024', '014']",1,0,2,0,36.780198,-76.233992
5421,WOODLAKE & DEBAUN,hr,Bus,"['024', '014']",1,0,2,0,36.779557,-76.256027
3878,MILITARY & GEORGETOWN,hr,Bus,"['014', '015']",1,0,2,0,36.790637,-76.244916
1401,VOLVO & SUMMIT POINTE,hr,Bus,['014'],1,0,2,0,36.767891,-76.239113
0853,BATTLEFIELD & LENORE,hr,Bus,['014'],1,0,2,0,36.758428,-76.249368
0854,BATTLEFIELD & THRASHER,hr,Bus,['014'],1,0,2,0,36.762442,-76.250823
3836,CAMPOSTELLA & ELKIN,hr,Bus,['013'],1,0,0,1,36.832779,-76.262184
0826,CAMPOSTELLA & INDIAN RIVER,hr,Bus,['013'],1,0,1,1,36.831079,-76.261836
0827,MELON & CAMPOSTELLA,hr,Bus,['013'],1,0,0,1,36.827627,-76.262875
3838,MELON & VINE,hr,Bus,['013'],1,0,0,1,36.825614,-76.264385
3839,BERKLEY & CRYSTAL,hr,Bus,['013'],1,0,2,2,36.824969,-76.26678
0860,CAMPOSTELLA & BERKLEY,hr,Bus,['013'],1,0,0,1,36.82374,-76.260499
5961,CAMPOSTELLA & GREENLEAF,hr,Bus,['013'],1,0,0,1,36.82531,-76.260591
0861,CAMPOSTELLA & MELON,hr,Bus,['013'],1,0,0,1,36.828225,-76.260938
0862,CAMPOSTELLA & CANTON,hr,Bus,['013'],1,0,0,1,36.831936,-76.261651
0863,CAMPOSTELLA & ARLINGTON,hr,Bus,['013'],1,0,0,1,36.835301,-76.26295
3831,INDIAN RIVER & FORD,hr,Bus,['012'],1,0,0,1,36.830611,-76.254086
0758,INDIAN RIVER & OAKWOOD,hr,Bus,['012'],1,0,0,1,36.831309,-76.25911
3082,INDIAN RIVER & ELKIN,hr,Bus,['012'],1,0,1,1,36.830851,-76.263264
0818,WILSON & CYPRESS,hr,Bus,['012'],1,0,1,2,36.82837,-76.266327
0819,WILSON & MANSON,hr,Bus,['012'],1,0,2,2,36.826327,-76.267744
5759,WILSON & MANSON,hr,Bus,['012'],1,0,2,2,36.826356,-76.267624
5947,WILSON & CASS,hr,Bus,['012'],1,0,0,1,36.829771,-76.265196
3089,INDIAN RIVER & ELKIN,hr,Bus,['012'],1,0,1,1,36.830698,-76.263436
0961,INDIAN RIVER & CAMPOS,hr,Bus,['012'],1,0,0,1,36.830817,-76.259607
0761,INDIAN RIVER & FORD,hr,Bus,['012'],1,0,0,1,36.830126,-76.253709
5343,POINDEXTER & WADE,hr,Bus,"['013', '012']",2,0,2,2,36.824813,-76.26916
5345,POINDEXTER & WADE,hr,Bus,"['013', '012']",2,0,2,2,36.824755,-76.269019
0858,BERKLEY & CRYSTAL,hr,Bus,['013'],2,0,2,2,36.824897,-76.266885
5745,BERKLEY & QUAIL,hr,Bus,['013'],2,0,1,2,36.823982,-76.264486
0859,BERKLEY & CAMPOSTELLA,hr,Bus,['013'],2,0,1,1,36.822698,-76.261365
0474,LIBERTY & TRANSYLVANIA,hr,Bus,"['013', '006']",2,0,2,2,36.817476,-76.266786
1292,LIBERTY & JEFFERSON,hr,Bus,['013'],2,0,1,2,36.816356,-76.264153
3907,CAMPOSTELLA & GIDEON,hr,Bus,['013'],2,0,0,2,36.809816,-76.256353
3825,CAMPOSTELLA & HUNTERDALE,hr,Bus,['013'],2,0,0,2,36.805736,-76.255841
1291,LIBERTY & GREER,hr,Bus,['013'],2,0,1,2,36.816212,-76.263501
0503,LIBERTY & FITCHETT,hr,Bus,"['013', '006']",2,0,2,2,36.817849,-76.267345
0504,LIBERTY & COMMERCE,hr,Bus,"['013', '006']",2,0,2,2,36.818869,-76.269807
0475,OLD ATLANTIC & JEFFERSON,hr,Bus,['006'],2,0,1,2,36.814931,-76.26551
0476,ATLANTIC & CULPEPPER,hr,Bus,['006'],2,0,1,2,36.812146,-76.264922
0929,ATLANTIC & POCAHONTAS,hr,Bus,['006'],2,0,0,1,36.809438,-76.264448
0477,ATLANTIC & MYERS,hr,Bus,['006'],2,0,0,1,36.807472,-76.264063
0478,ATLANTIC & STRAWBERRY,hr,Bus,['006'],2,0,1,1,36.804644,-76.263491
1249,ATLANTIC & NARROW,hr,Bus,['006'],2,0,1,1,36.802562,-76.263073
9711,ATLANTIC & BROAD,hr,Bus,['006'],2,0,1,1,36.799402,-76.262434
1288,ATLANTIC & NARROW,hr,Bus,['006'],2,0,1,1,36.803415,-76.263009
0499,ATLANTIC & MYERS,hr,Bus,['006'],2,0,0,1,36.807887,-76.263892
0500,ATLANTIC & POCAHONTAS,hr,Bus,['006'],2,0,0,1,36.809509,-76.264186
0501,ATLANTIC & CULPEPPER,hr,Bus,['006'],2,0,1,2,36.811658,-76.264608
0502,OLD ATLANTIC & JEFFERSON,hr,Bus,['006'],2,0,1,2,36.81549,-76.265465
9196,BORDER & BETHEL,hr,Bus,['013'],1,0,0,2,36.815563,-76.259185
3315,BORDER & WINDY,hr,Bus,['013'],1,0,0,2,36.815995,-76.251073
0855,STALHAM & FIRESIDE,hr,Bus,['013'],1,0,0,2,36.812086,-76.249532
9217,FIRESIDE & PARKSIDE,hr,Bus,['013'],1,0,0,2,36.812126,-76.251788
3313,PARKSIDE & BETHEL,hr,Bus,['013'],1,0,0,2,36.812641,-76.255687
1248,CAMPOSTELLA & ARBOR GLEN,hr,Bus,['013'],1,0,0,2,36.806653,-76.255773
3908,CAMPOSTELLA & SUNRISE,hr,Bus,['013'],1,0,0,2,36.809708,-76.256149
3826,PARKSIDE & CAMPOSTELLA,hr,Bus,['013'],1,0,0,2,36.812253,-76.256778
9219,FIRESIDE & STALHAM,hr,Bus,['013'],1,0,0,2,36.812006,-76.251748
0831,STALHAM & FIRESIDE,hr,Bus,['013'],1,0,0,2,36.812093,-76.249394
0856,STALHAM & SHADY,hr,Bus,['013'],1,0,0,2,36.813535,-76.24916
3314,BORDER & WINDY,hr,Bus,['013'],1,0,0,2,36.815863,-76.250227
1518,BORDER & DRAYTON,hr,Bus,['013'],1,0,0,2,36.816629,-76.257225
0857,BORDER & BETHEL,hr,Bus,['013'],1,0,0,2,36.815734,-76.259168
9185,NEWPORT & RHODE ISLAND,hr,Bus,['011'],2,0,1,2,36.88765,-76.288284
0741,NEWPORT & PENNSYLVANIA,hr,Bus,['011'],2,0,2,1,36.883808,-76.289277
0743,NEWPORT & VIRGINIA,hr,Bus,['011'],2,0,2,1,36.882312,-76.289775
0744,NEWPORT & GEORGIA,hr,Bus,['011'],2,0,2,1,36.880838,-76.29028
0733,NEWPORT & GEORGIA,hr,Bus,['011'],2,0,2,1,36.880631,-76.290204
0735,NEWPORT & PENNSYLVANIA,hr,Bus,['011'],2,0,2,1,36.883614,-76.289212
0737,NEWPORT & CONNECTICUT,hr,Bus,['011'],2,0,1,2,36.886587,-76.288153
0182,GRANBY & CONNECTICUT,hr,Bus,['001'],2,0,1,2,36.885585,-76.281396
0928,GRANBY & DELAWARE,hr,Bus,['001'],2,0,1,2,36.882776,-76.28184
0023,GRANBY & DELAWARE,hr,Bus,['001'],2,0,1,2,36.88285,-76.281593
0024,GRANBY & 42ND,hr,Bus,['001'],2,0,1,2,36.884642,-76.2813
0745,NEWPORT & 37TH,hr,Bus,['011'],2,0,2,2,36.879605,-76.290605
0747,NEWPORT & 35TH,hr,Bus,['011'],2,0,2,2,36.878414,-76.290525
0748,35TH & COLONIAL,hr,Bus,['011'],2,0,2,2,36.878109,-76.28869
0750,COLONIAL & 30TH,hr,Bus,['011'],2,0,2,1,36.875375,-76.289076
0751,COLONIAL & 26TH,hr,Bus,['011'],2,0,2,1,36.873028,-76.290161
0732,NEWPORT & 37TH,hr,Bus,['011'],2,0,2,2,36.879354,-76.290423
6055,38TH & KILLAM,hr,Bus,['004'],2,0,2,0,36.879832,-76.297869
0427,COLLEY & 35TH,hr,Bus,['004'],2,0,2,1,36.878046,-76.294852
0428,COLLEY & 26TH,hr,Bus,['004'],2,0,2,1,36.87458,-76.295312
0435,COLLEY & 26TH,hr,Bus,['004'],2,0,2,1,36.874054,-76.295021
0437,COLLEY & 35TH,hr,Bus,['004'],2,0,2,1,36.878106,-76.294728
0214,HAMPTON & 27TH,hr,Bus,['002'],2,0,2,0,36.877004,-76.30189
0216,HAMPTON & 37TH,hr,Bus,['002'],2,0,2,0,36.878321,-76.301975
2286,COLONIAL & 22ND,hr,Bus,['011'],2,0,2,1,36.870246,-76.291404
0753,COLONIAL & 21ST,hr,Bus,['011'],2,0,2,1,36.868651,-76.292062
0754,COLONIAL & SPOTSWOOD,hr,Bus,['011'],2,1,2,1,36.86681,-76.292852
0755,COLONIAL & PRINCESS ANNE,hr,Bus,['011'],2,1,2,0,36.863794,-76.294157
0443,21ST & COLONIAL,hr,Bus,['004'],2,1,2,1,36.869451,-76.293118
0417,21ST & MANTEO,hr,Bus,['004'],2,1,2,1,36.870154,-76.294257
0209,HAMPTON & PRINCESS ANNE,hr,Bus,['002'],2,2,2,0,36.866647,-76.300362
0211,HAMPTON & SPOTSWOOD,hr,Bus,['002'],2,1,2,0,36.869021,-76.300657
2532,HAMPTON & WOODROW,hr,Bus,['002'],2,1,2,0,36.87227,-76.301352
1237,PRINCESS ANNE & MANTEO,hr,Bus,['023'],2,1,2,0,36.864866,-76.296936
0757,COLONIAL & 26TH,hr,Bus,['011'],2,0,2,1,36.872691,-76.290121
0728,COLONIAL & 29TH,hr,Bus,['011'],2,0,2,1,36.874915,-76.289161
0730,COLONIAL & 31ST,hr,Bus,['011'],2,0,2,2,36.876319,-76.288553
0731,COLONIAL & 35TH,hr,Bus,['011'],2,0,2,2,36.87803,-76.288434
3804,26TH & WAVERLY,hr,Bus,['003'],2,0,1,2,36.872202,-76.274751
0387,27TH & LEO,hr,Bus,['003'],2,0,2,2,36.871449,-76.276587
0389,27TH & FAWN,hr,Bus,['003'],2,0,2,2,36.871084,-76.278984
0188,MONTICELLO & 25TH,hr,Bus,"['003', '001']",2,0,2,2,36.870127,-76.282805
0017,26TH & ARMISTEAD,hr,Bus,['003'],2,0,2,2,36.870387,-76.281573
0286,26TH & GAZEL,hr,Bus,['003'],2,0,2,2,36.87033,-76.277747
0289,26TH & WAVERLY,hr,Bus,['003'],2,0,1,2,36.87215,-76.274518
0184,GRANBY & 35TH,hr,Bus,['001'],2,0,2,2,36.878784,-76.282172
0186,MONTICELLO & 29th,hr,Bus,['001'],2,0,2,2,36.872814,-76.281576
0390,MONTICELLO & 26TH,hr,Bus,['001'],2,0,2,2,36.871024,-76.282198
0018,MONTICELLO & 29TH,hr,Bus,['001'],2,0,2,2,36.872931,-76.28137
0020,GRANBY & 33RD,hr,Bus,['001'],2,0,2,2,36.877198,-76.281799
0022,GRANBY & 38TH,hr,Bus,['001'],2,0,2,2,36.88036,-76.281989
0666,SEWELLS POINT & DENISON,hr,Bus,['009'],2,0,2,2,36.910339,-76.245908
0667,SEWELLS POINT & AVENUE E,hr,Bus,['009'],2,0,2,2,36.907754,-76.244567
0669,SEWELLS POINT & KITTRELL,hr,Bus,['009'],2,0,2,2,36.90428,-76.242952
0541,LITTLE CREEK & HAROLD,hr,Bus,"['008', '021', '005']",2,0,2,2,36.915814,-76.25297
0583,TIDEWATER & LITTLE CREEK,hr,Bus,['008'],2,0,2,2,36.914665,-76.254654
3101,TIDEWATER & STANLEY,hr,Bus,['008'],2,0,2,2,36.912841,-76.25517
0584,TIDEWATER & BILTMORE,hr,Bus,['008'],2,0,2,2,36.909898,-76.256208
3849,TIDEWATER & EASY,hr,Bus,['008'],2,0,2,2,36.91021,-76.2559
0540,TIDEWATER & LITTLE CREEK,hr,Bus,['008'],2,0,2,2,36.912741,-76.255056
0886,LITTLE CREEK & DALLAS,hr,Bus,['021'],2,0,1,1,36.917419,-76.258884
0884,LITTLE CREEK & FORT WORTH,hr,Bus,['021'],1,0,1,1,36.917755,-76.264653
0885,LITTLE CREEK & GALVESTON,hr,Bus,['021'],1,0,2,1,36.918012,-76.262017
0887,LITTLE CREEK & VAN PATTEN,hr,Bus,['021'],1,0,2,2,36.91682,-76.256375
0882_merged_9880502,TAUSSIG & GRANBY,hr,Bus,['021'],1,0,2,1,36.917686,-76.271077
0883,TAUSSIG & LITTLE CREEK,hr,Bus,['021'],1,0,2,1,36.917326,-76.269463
5846,LITTLE CREEK & VANPATTEN,hr,Bus,['021'],1,0,2,2,36.916826,-76.255972
0963,LITTLE CREEK & GALVESTON,hr,Bus,['021'],1,0,2,1,36.918263,-76.26219
0964,LITTLE CREEK & WEST GLEN,hr,Bus,['021'],1,0,2,1,36.91776,-76.265298
0965,TAUSSIG & LITTLE CREEK,hr,Bus,['021'],1,0,2,1,36.917607,-76.270024
0882_merged_9880491,TAUSSIG & GRANBY,hr,Bus,['021'],1,0,2,1,36.917803,-76.271258
5724,TIDEWATER &  NORMAN,hr,Bus,['005'],1,0,0,1,36.927625,-76.253057
5725,TIDEWATER & MARVIN,hr,Bus,['005'],1,0,0,1,36.924702,-76.252626
5726,TIDEWATER & LEONARD,hr,Bus,['005'],1,0,1,2,36.920297,-76.253362
6126,SEWELLS POINT & WIDGEON,hr,Bus,['009'],1,0,1,2,36.901825,-76.242652
6125,SEWELLS POINT & MARIETTA,hr,Bus,['009'],1,0,1,2,36.899544,-76.242429
0675,SEWELLS POINT & QUAIL,hr,Bus,['009'],1,0,1,2,36.896589,-76.240911
0586,TIDEWATER & WIDGEON,hr,Bus,['008'],1,0,1,2,36.900968,-76.256469
0539,TIDEWATER & WIDGEON,hr,Bus,['008'],1,0,1,2,36.900328,-76.255939
0759,SEWELLS POINT & STRAND,hr,Bus,['009'],1,0,0,2,36.894618,-76.239454
0774,SEWELLS POINT & GREENWOOD,hr,Bus,['009'],1,0,0,2,36.893354,-76.238941
0649,SEWELLS POINT & PARTRIDGE,hr,Bus,['009'],1,0,0,2,36.895391,-76.239889
0650,SEWELLS POINT & QUAIL,hr,Bus,['009'],1,0,1,2,36.897209,-76.241295
0651,SEWELLS POINT & MARIETTA,hr,Bus,['009'],1,0,1,2,36.899456,-76.242287
6127,SEWELLS POINT & WIDGEON,hr,Bus,['009'],1,0,1,2,36.902052,-76.242548
0360,CHESAPEAKE & DUNDALE,hr,Bus,['003'],1,0,0,2,36.899659,-76.239255
0362,CHESAPEAKE & PICADILLY,hr,Bus,['003'],1,0,0,2,36.897117,-76.238827
0363,CHESAPEAKE & STRAND,hr,Bus,['003'],1,0,0,2,36.893576,-76.238275
0364,CHESAPEAKE & GREEN,hr,Bus,['003'],1,0,0,2,36.891756,-76.237997
0310,CHESAPEAKE & GREEN,hr,Bus,['003'],1,0,1,2,36.891341,-76.237649
0311,CHESAPEAKE & STRAND,hr,Bus,['003'],1,0,0,2,36.895304,-76.238225
0303,CHESAPEAKE & CURIE,hr,Bus,['003'],1,0,0,2,36.897507,-76.238578
0312,CHESAPEAKE & DUNDALE,hr,Bus,['003'],1,0,0,2,36.900768,-76.239094
0893,MILITARY & LONGDALE,hr,Bus,['015'],1,0,0,2,36.900994,-76.228274
0895,MILITARY & CRESCENT,hr,Bus,['015'],1,0,0,2,36.898179,-76.226142
0896,MILITARY & INTERNATIONAL,hr,Bus,['015'],1,0,1,2,36.896219,-76.224779
0676,SEWELLS POINT & GREENWOOD,hr,Bus,['009'],2,0,0,2,36.892165,-76.238892
0677,SEWELLS POINT & CHESAPEAKE,hr,Bus,['009'],2,0,1,2,36.888818,-76.238228
0717,SEWELLS POINT & NORVELLA,hr,Bus,['009'],2,0,0,2,36.886376,-76.236492
0681,SEWELLS POINT & KENNEBECK,hr,Bus,['009'],2,0,1,0,36.881112,-76.233861
0365,CHESAPEAKE & NORVIEW,hr,Bus,['003'],2,0,1,2,36.889606,-76.23913
0367,CHESAPEAKE & CRAVEN,hr,Bus,['003'],2,0,0,2,36.887825,-76.241893
0368,CHESAPEAKE & NANSEMOND,hr,Bus,['003'],2,0,0,2,36.885544,-76.244632
0307,CHESAPEAKE & LENOIR,hr,Bus,['003'],2,0,0,2,36.885075,-76.244738
0309,CHESAPEAKE & NORVIEW,hr,Bus,['003'],2,0,1,2,36.889139,-76.239358
0370,CHESAPEAKE & WAYNE CREEK,hr,Bus,['003'],2,0,0,2,36.884026,-76.245988
0680,SEWELLS POINT & WINDERMERE,hr,Bus,['009'],2,0,0,1,36.883767,-76.234677
0645,SEWELLS POINT & LITTLE JOHN,hr,Bus,['009'],2,0,1,0,36.879024,-76.233351
0646,SEWELLS POINT & KENNEBECK,hr,Bus,['009'],2,0,1,0,36.881502,-76.233734
0771,SEWELLS POINT & TEXAS,hr,Bus,['009'],2,0,0,2,36.885672,-76.235777
0647,SEWELLS POINT & NORVIEW,hr,Bus,['009'],2,0,1,2,36.888963,-76.238139
0898,MILITARY & NORVELLA,hr,Bus,['015'],2,0,1,2,36.892958,-76.222396
0900,AZALEA GARDEN & IOWA,hr,Bus,['015'],2,0,2,0,36.888216,-76.221105
0901,AZALEA GARDEN & WINDERMERE,hr,Bus,['015'],2,0,2,0,36.885557,-76.222801
0903,AZALEA GARDEN & BEAMON,hr,Bus,['015'],2,0,2,0,36.881334,-76.2255
3879,AZALEA GARDEN & FARIS,hr,Bus,['015'],2,0,2,0,36.888405,-76.220838
0626,SEWELLS POINT & DENVER,hr,Bus,['009'],1,0,2,0,36.871757,-76.232128
0644,SEWELLS POINT & BRUCE,hr,Bus,['009'],1,0,2,0,36.875154,-76.232694
0905,ROBIN HOOD & WALMER,hr,Bus,['015'],1,0,2,0,36.879025,-76.226195
0907,ROBIN HOOD & AYLIFF,hr,Bus,['015'],1,0,2,0,36.879943,-76.221583
0908,ROBIN HOOD & ALMEDA,hr,Bus,['015'],1,0,2,0,36.881514,-76.216691
0943,MILITARY & ROBIN HOOD,hr,Bus,['015'],1,0,2,0,36.880089,-76.212614
0944,ROBIN HOOD & ALMEDA,hr,Bus,['015'],1,0,2,0,36.881003,-76.218286
0945,ROBIN HOOD & AYLIFF,hr,Bus,['015'],1,0,2,0,36.880245,-76.220812
0946,ROBIN HOOD & AZALEA GARDEN,hr,Bus,['015'],1,0,2,0,36.879307,-76.226525
0947,AZALEA GARDEN & BEAMON,hr,Bus,['015'],1,0,2,0,36.881909,-76.225018
3336,LITTLE CREEK & MERRITT,hr,Bus,"['008', '021']",2,0,2,2,36.915081,-76.246327
0581,LITTLE CREEK & ELTON,hr,Bus,"['008', '021']",2,0,2,2,36.915407,-76.249227
0582,LITTLE CREEK RD & OLD OCEAN VIEW,hr,Bus,"['008', '021', '005']",2,0,2,2,36.915687,-76.251373
0351,CHESAPEAKE & BURKSDALE,hr,Bus,['003'],2,0,1,2,36.919975,-76.242451
0352,CHESAPEAKE & DOVERCOURT,hr,Bus,['003'],2,0,1,2,36.916779,-76.241996
0353,CHESAPEAKE & LITTLE CREEK,hr,Bus,['003'],2,0,2,2,36.914937,-76.241687
0318,CHESAPEAKE & LITTLE CREEK,hr,Bus,['003'],2,0,1,2,36.915209,-76.241387
0319,CHESAPEAKE & ELK,hr,Bus,['003'],2,0,1,2,36.917801,-76.24178
0322,CHESAPEAKE & SHEPPARD,hr,Bus,['003'],2,0,1,2,36.923773,-76.242736
0579,LITTLE CREEK & MOOSE,hr,Bus,['021'],2,0,1,2,36.915925,-76.236177
5720,TIDEWATER & LEONARD,hr,Bus,['005'],2,0,1,1,36.920771,-76.253004
0587,TIDEWATER & WAUKESHA,hr,Bus,['008'],2,0,1,1,36.893907,-76.257447
5743,TIDEWATER & WAUKESHA,hr,Bus,['008'],2,0,1,1,36.894867,-76.257025
0589,TIDEWATER & NORVIEW,hr,Bus,['008'],2,0,1,1,36.890835,-76.25868
0590,TIDEWATER & WILLOWWOOD,hr,Bus,['008'],2,0,1,1,36.887734,-76.25988
0591,TIDEWATER & BAPAUME,hr,Bus,['008'],2,0,1,1,36.885469,-76.26065
0593,TIDEWATER & CLARK,hr,Bus,['008'],2,0,1,1,36.880042,-76.262669
0594,TIDEWATER & LAFAYETTE,hr,Bus,['008'],2,0,0,1,36.877158,-76.263876
0595,TIDEWATER & BELLEVUE,hr,Bus,['008'],2,0,0,1,36.875873,-76.264335
0597,TIDEWATER & SHOOP,hr,Bus,['008'],2,0,0,2,36.872274,-76.265649
0598,TIDEWATER & HANCOCK,hr,Bus,['008'],2,0,0,2,36.870509,-76.266423
0380,LAFAYETTE & TIDEWATER,hr,Bus,['003'],2,0,0,1,36.877853,-76.263999
0382,LAFAYETTE & VERSAILLES,hr,Bus,['003'],2,0,0,1,36.877433,-76.267444
0384,LAFAYETTE & ORLEANS,hr,Bus,['003'],2,0,0,2,36.875135,-76.269593
0290,LAFAYETTE & DUPONT,hr,Bus,['003'],2,0,0,2,36.874331,-76.270783
0292,LAFAYETTE & BELLEVUE,hr,Bus,['003'],2,0,0,1,36.877658,-76.267118
0293,LAFAYETTE & LORRAINE,hr,Bus,['003'],2,0,0,1,36.877956,-76.265194
0600,TIDEWATER & LINDENWOOD,hr,Bus,['008'],2,0,1,2,36.866969,-76.268915
0527,TIDEWATER & LINDENWOOD,hr,Bus,['008'],2,0,1,2,36.86629,-76.269039
3396,TIDEWATER & SAINT JULIAN,hr,Bus,['008'],2,0,1,2,36.861103,-76.271689
0601,TIDEWATER & GOFF,hr,Bus,['008'],2,0,2,2,36.858298,-76.27291
0409,TIDEWATER & PRINCESS ANNE,hr,Bus,['008'],2,0,2,2,36.857035,-76.273096
0524,TIDEWATER & GOFF,hr,Bus,['008'],2,0,1,2,36.858028,-76.272647
5742,TIDEWATER & GORDON,hr,Bus,['008'],2,0,1,2,36.860917,-76.271374
0448,CHURCH & 18TH,hr,Bus,['004'],2,0,2,2,36.86416,-76.279059
5734,CHURCH & GOFF,hr,Bus,['004'],2,0,2,2,36.859647,-76.27819
0411,CHURCH & GOFF,hr,Bus,['004'],2,0,2,2,36.859748,-76.277909
0412,CHURCH & B,hr,Bus,['004'],2,0,2,2,36.863777,-76.278738
1228,PRINCESS ANNE & TIDEWATER,hr,Bus,['023'],2,0,2,2,36.856341,-76.27256
1229,PRINCESS ANNE & CHAPEL,hr,Bus,['023'],2,0,2,2,36.857321,-76.275454
1231,PRINCESS ANNE & CHURCH,hr,Bus,['023'],2,0,2,1,36.858481,-76.278962
1232,PRINCESS ANNE & ARMISTEAD,hr,Bus,['023'],2,0,2,1,36.860267,-76.285245
0528,TIDEWATER & HANCOCK,hr,Bus,['008'],2,0,0,2,36.870496,-76.266187
0529,TIDEWATER & SHOOP,hr,Bus,['008'],2,0,0,2,36.871971,-76.265554
0530,TIDEWATER & SAINT DENIS,hr,Bus,['008'],2,0,0,1,36.874658,-76.264607
0297,LAFAYETTE & BAPAUME,hr,Bus,['003'],2,0,1,1,36.876813,-76.260329
2041,LAFAYETTE & LENS,hr,Bus,['003'],2,0,1,1,36.875944,-76.256755
0375,LAFAYETTE & MARNE,hr,Bus,['003'],2,0,1,1,36.875598,-76.254833
0376,LAFAYETTE & LENS,hr,Bus,['003'],2,0,1,1,36.875963,-76.256401
0533,TIDEWATER & LAFAYETTE,hr,Bus,['008'],2,0,1,1,36.878115,-76.263271
0535,TIDEWATER & COLUMBIA,hr,Bus,['008'],2,0,1,1,36.881444,-76.261975
0536,TIDEWATER & CROMWELL,hr,Bus,['008'],2,0,1,1,36.885622,-76.260391
0537,TIDEWATER & WILLOW WOOD,hr,Bus,['008'],2,0,1,1,36.887951,-76.259597
0538,TIDEWATER & NORVIEW,hr,Bus,['008'],2,0,1,1,36.891005,-76.25832
0377,LAFAYETTE & BREST,hr,Bus,['003'],2,0,1,1,36.876561,-76.258824
0378,LAFAYETTE & DUNKIRK,hr,Bus,['003'],2,0,1,1,36.877082,-76.260876
0508,LIBERTY & SHERMAN,hr,Bus,['006'],2,0,2,2,36.825989,-76.27769
5532,LIBERTY & CULPEPPER,hr,Bus,['006'],2,0,2,2,36.828236,-76.279728
0510,LIBERTY & GRAYSON,hr,Bus,['006'],2,0,2,2,36.829883,-76.281389
0511,MAIN & BERKLEY,hr,Bus,['006'],2,0,2,1,36.832156,-76.283396
0465,MAIN & BERKLEY,hr,Bus,['006'],2,0,2,1,36.832191,-76.283524
0467,LIBERTY & GRAYSON,hr,Bus,['006'],2,0,2,2,36.829828,-76.281516
0468,LIBERTY & LANCASTER,hr,Bus,['006'],2,0,2,2,36.828807,-76.280525
0469,LIBERTY & SHERMAN,hr,Bus,['006'],2,0,2,2,36.825912,-76.277814
9145,49TH & QUARANTINE,hr,Bus,['004'],2,0,2,0,36.887489,-76.307644
0264,HAMPTON & 45TH,hr,Bus,"['004', '002']",2,0,2,0,36.88464,-76.302588
5835,43RD & BOWDENS FERRY,hr,Bus,['004'],2,0,2,0,36.883328,-76.305002
5669,ELKHORN & 41ST,hr,Bus,['004'],2,0,2,0,36.881919,-76.307999
5668,ELKHORN & 39TH,hr,Bus,['004'],2,0,2,0,36.880048,-76.307885
9143,38TH & BLUESTONE,hr,Bus,['004'],2,0,2,0,36.879496,-76.304912
0441,38TH & BOWDENS FERRY,hr,Bus,['004'],2,0,2,0,36.879565,-76.30347
3784,38TH & HAMPTON,hr,Bus,['004'],2,0,2,0,36.879698,-76.303212
0421,38TH & BLUESTONE,hr,Bus,['004'],2,0,2,0,36.879632,-76.30537
5670,ELKHORN & 39TH,hr,Bus,['004'],2,0,2,0,36.880243,-76.307769
5671,ELKHORN & 42ND,hr,Bus,['004'],2,0,2,0,36.882407,-76.307881
9158,POWHATAN & 46TH,hr,Bus,['004'],2,0,2,0,36.885821,-76.312565
0218,HAMPTON & 41ST,hr,Bus,['002'],2,0,2,0,36.882399,-76.302209
0261,HAMPTON & BOLLING,hr,Bus,['002'],2,1,2,0,36.890844,-76.303932
5828,HAMPTON & 49TH,hr,Bus,['002'],2,1,2,0,36.88889,-76.303059
0266,HAMPTON & 41ST,hr,Bus,['002'],2,0,2,0,36.881588,-76.302397
1911,HAMPTON & 37TH,hr,Bus,['002'],2,0,2,0,36.878835,-76.302135
0267,HAMPTON & 25TH,hr,Bus,['002'],2,0,2,0,36.875673,-76.301959
6056,38th & KELLAM,hr,Bus,['004'],2,0,2,0,36.879932,-76.298464
0219,HAMPTON & 45TH,hr,Bus,['002'],2,0,2,0,36.884223,-76.302219
0221,HAMPTON & 49TH,hr,Bus,['002'],2,0,2,0,36.887224,-76.302407
3785,HAMPTON & SHELL STATION,hr,Bus,['002'],2,0,2,0,36.888639,-76.302658
0053,GRANBY & DUFFYS,hr,Bus,"['003', '001', '005']",1,0,0,2,36.953547,-76.251738
0156,FIRST VIEW & GOVERNMENT,hr,Bus,['003'],1,0,0,2,36.952121,-76.257532
2086,1ST VIEW & PORTVIEW,hr,Bus,['003'],1,0,0,2,36.955179,-76.254483
0054,OCEAN VIEW & HAMMETT,hr,Bus,"['003', '001']",1,0,0,2,36.951082,-76.247823
0055,OCEAN VIEW & NORFOLK,hr,Bus,"['003', '001']",1,0,0,2,36.949813,-76.245815
5751,CHESAPEAKE & OCEAN VIEW,hr,Bus,['003'],1,0,0,2,36.947605,-76.243868
0149,OCEAN VIEW & NORFOLK,hr,Bus,"['003', '001']",1,0,0,2,36.94997,-76.245823
2062,1ST VIEW & A VIEW,hr,Bus,['003'],1,0,0,2,36.955034,-76.254782
3801,FIRST VIEW & GOVERNMENT,hr,Bus,['003'],1,0,1,2,36.951989,-76.257806
0160,GRANBY & GOVERNMENT,hr,Bus,"['001', '005']",1,0,0,2,36.9504,-76.254341
0048,GRANBY & BATTERSEA,hr,Bus,"['001', '005']",1,0,0,2,36.948166,-76.256277
0051,GRANBY & GOVERNMENT,hr,Bus,"['001', '005']",1,0,0,2,36.949204,-76.255099
0608,OCEAN VIEW & 4TH VIEW,hr,Bus,['005'],2,0,0,2,36.959208,-76.260125
1014,OCEAN VIEW & 15TH VIEW,hr,Bus,['005'],2,0,0,1,36.966952,-76.294315
1015,OCEAN VIEW & 14th VIEW,hr,Bus,['005'],2,0,0,1,36.967042,-76.290922
1016,OCEAN VIEW & LE CLAIR,hr,Bus,['005'],2,0,0,1,36.967098,-76.286382
1017,OCEAN VIEW & HANSFORD,hr,Bus,['005'],2,0,0,1,36.967068,-76.283866
1018,OCEAN VIEW & 10TH VIEW,hr,Bus,['005'],2,0,0,1,36.9668,-76.278106
1019,OCEAN VIEW & 9TH VIEW,hr,Bus,['005'],2,0,0,1,36.966134,-76.275429
0605,OCEAN VIEW & 8TH VIEW,hr,Bus,['005'],2,0,0,1,36.965201,-76.272485
0606,OCEAN VIEW & 7TH VIEW,hr,Bus,['005'],2,0,0,1,36.963665,-76.267602
0607,OCEAN VIEW & 6TH VIEW,hr,Bus,['005'],2,0,0,2,36.962663,-76.265735
3851,OCEAN VIEW & 5TH VIEW,hr,Bus,['005'],2,0,0,2,36.961469,-76.263884
5614,OCEAN VIEW & 4TH VIEW,hr,Bus,['005'],2,0,0,2,36.959491,-76.260383
1007,OCEAN VIEW & 5TH VIEW,hr,Bus,['005'],2,0,0,2,36.961387,-76.263407
1008,OCEAN VIEW & 6TH VIEW,hr,Bus,['005'],2,0,0,1,36.96299,-76.265889
1009,OCEAN VIEW & 7TH VIEW,hr,Bus,['005'],2,0,0,1,36.964151,-76.268488
5938,OCEAN VIEW & 8TH VIEW,hr,Bus,['005'],2,0,0,1,36.965198,-76.271831
1010,OCEAN VIEW & SALEM,hr,Bus,['005'],2,0,0,1,36.966635,-76.276475
0693,OCEAN VIEW & 11TH VIEW,hr,Bus,['005'],2,0,0,1,36.967222,-76.281794
3850,OCEAN VIEW & 12TH VIEW,hr,Bus,['005'],2,0,0,1,36.967244,-76.284186
0695,OCEAN VIEW & RICHVIEW,hr,Bus,['005'],2,0,0,1,36.967223,-76.289028
0696,OCEAN VIEW & 15TH VIEW,hr,Bus,['005'],2,0,0,1,36.967134,-76.293485
3894,FIRST VIEW & RIDGEWELL,hr,Bus,['003'],1,0,0,1,36.946387,-76.267443
2085,1ST VIEW & SAINT GEORGE,hr,Bus,['003'],1,0,0,1,36.948133,-76.263472
0153,FIRST VIEW & MAPLE,hr,Bus,['003'],1,0,1,2,36.949561,-76.260216
3803,FIRST VIEW & MAPLE,hr,Bus,['003'],1,0,1,2,36.949773,-76.259998
2065,1ST VIEW & SAINT GEORGE,hr,Bus,['003'],1,0,0,1,36.947834,-76.264377
0161,GRANBY & OSBORNE,hr,Bus,"['001', '005']",1,0,0,2,36.948937,-76.255945
0927,GRANBY & SLOANE,hr,Bus,['001'],1,0,0,2,36.945606,-76.259316
0162,GRANBY & LEICESTER,hr,Bus,['001'],1,0,0,1,36.942684,-76.26024
5957,CHESAPEAKE & DUDLEY,hr,Bus,['003'],1,0,0,2,36.943244,-76.245889
0343,CHESAPEAKE & LEICESTER,hr,Bus,['003'],1,0,0,2,36.941928,-76.245853
0344,CHESAPEAKE & FARRELL,hr,Bus,['003'],1,0,0,2,36.939119,-76.245435
0044,GRANBY & CHESTER,hr,Bus,['001'],1,0,0,1,36.939587,-76.261315
0046,GRANBY & RANDALL,hr,Bus,['001'],1,0,0,1,36.943404,-76.259692
3852,TIDEWATER & LORENGO,hr,Bus,['005'],1,0,0,2,36.944057,-76.258099
3853,TIDEWATER & LEICESTER,hr,Bus,['005'],1,0,0,2,36.941753,-76.256172
0623,TIDEWATER & TWILLEY,hr,Bus,['005'],1,0,0,2,36.939341,-76.254904
0625,TIDEWATER & BECK,hr,Bus,['005'],1,0,0,2,36.937368,-76.254552
0981,TIDEWATER & BECK,hr,Bus,['005'],1,0,0,2,36.937061,-76.254243
0982,TIDEWATER & CHESTER,hr,Bus,['005'],1,0,0,2,36.939187,-76.254592
0983,TIDEWATER & RANDALL,hr,Bus,['005'],1,0,0,2,36.942675,-76.256688
3848,TIDEWATER & GILPIN,hr,Bus,['005'],1,0,1,2,36.944155,-76.25785
0332,CHESAPEAKE & DUDLEY,hr,Bus,['003'],2,0,0,2,36.94281,-76.245677
5750,CHESAPEAKE & BALVIEW,hr,Bus,['003'],2,0,0,2,36.94645,-76.2441
0056,OCEAN VIEW & ELNORA,hr,Bus,['001'],2,0,0,2,36.947934,-76.241558
0058,OCEAN VIEW & ATLANS,hr,Bus,['001'],2,0,0,2,36.945964,-76.23882
0060,OCEAN VIEW & BEACH VIEW,hr,Bus,['001'],2,0,0,2,36.944179,-76.235762
0062,OCEAN VIEW & STURGIS,hr,Bus,['001'],2,0,0,1,36.942056,-76.231913
0143,OCEAN VIEW & WILLOW,hr,Bus,['001'],2,0,0,1,36.941504,-76.230474
0144,OCEAN VIEW & STURGIS,hr,Bus,['001'],2,0,0,1,36.942319,-76.232115
0146,OCEAN VIEW & BEACH VIEW,hr,Bus,['001'],2,0,0,2,36.944271,-76.235617
5641,OCEAN VIEW & CHESAPEAKE ST,hr,Bus,['001'],2,0,0,2,36.947473,-76.240629
0346,CHESAPEAKE & EARL,hr,Bus,['003'],1,0,0,2,36.935884,-76.244927
0347,CHESAPEAKE & BAYVIEW,hr,Bus,['003'],1,0,0,2,36.934065,-76.244657
0348,CHESAPEAKE & FISHERMANS,hr,Bus,['003'],1,0,0,2,36.929915,-76.243982
0042,GRANBY & BAYVIEW,hr,Bus,['001'],1,0,0,1,36.934691,-76.264021
5617,TIDEWATER & EVANS,hr,Bus,['005'],1,0,0,2,36.934593,-76.254114
5723,TIDEWATER & WOODFORD,hr,Bus,['005'],1,0,0,2,36.932189,-76.25375
0980,TIDEWATER & BAYVIEW,hr,Bus,['005'],1,0,0,2,36.933637,-76.253713
0349,CHESAPEAKE & SHEPPARD,hr,Bus,['003'],2,0,1,2,36.923932,-76.243065
0323,CHESAPEAKE & FRANK,hr,Bus,['003'],2,0,0,2,36.926413,-76.243141
5721,TIDEWATER & MARVIN,hr,Bus,['005'],2,0,0,1,36.925112,-76.252367
5722,TIDEWATER & NORMAN,hr,Bus,['005'],2,0,0,2,36.929237,-76.253021
0324,CHESAPEAKE & FISHERMANS,hr,Bus,['003'],2,0,0,2,36.930525,-76.243771
0326,CHESAPEAKE & BAYVIEW,hr,Bus,['003'],2,0,0,2,36.933312,-76.244167
0328,CHESAPEAKE & DUNE,hr,Bus,['003'],2,0,0,2,36.937292,-76.244794
0330,CHESAPEAKE & CHESTER,hr,Bus,['003'],2,0,0,2,36.9391,-76.245089
0231,HAMPTON & STAFF COLLEGE,hr,Bus,"['002', '021']",2,0,0,0,36.919734,-76.312223
0233,HAMPTON & BAKER,hr,Bus,"['002', '021']",2,0,0,1,36.923317,-76.315957
5449,HAMPTON & HELMICK,hr,Bus,"['002', '021']",2,0,0,2,36.925879,-76.31722
0235,HAMPTON & BEECHWOOD,hr,Bus,"['002', '021']",1,0,0,2,36.929456,-76.317648
0222,HAMPTON & BOLLING,hr,Bus,['002'],2,1,2,0,36.891063,-76.30373
0223,HAMPTON & ROCKBRIDGE,hr,Bus,['002'],2,2,2,0,36.894709,-76.303064
0225,HAMPTON & SURRY,hr,Bus,['002'],2,2,2,0,36.896514,-76.302741
0226,HAMPTON & LEXAN,hr,Bus,['002'],2,2,1,0,36.900283,-76.303237
0227,HAMPTON & ESCADRILLE,hr,Bus,['002'],2,2,1,0,36.902286,-76.303851
0256,HAMPTON & LEXAN,hr,Bus,['002'],2,2,1,0,36.900529,-76.303656
0258,HAMPTON & SURREY,hr,Bus,['002'],2,2,2,0,36.896117,-76.303021
0259,HAMPTON & ROCKBRIDGE,hr,Bus,['002'],2,2,2,0,36.894748,-76.303373
0228,HAMPTON & HELENA,hr,Bus,['002'],2,1,1,0,36.909809,-76.305531
0336,HAMPTON & RUNNYMEDE,hr,Bus,['002'],2,1,1,0,36.913464,-76.306299
0230,HAMPTON & LITTLE CREEK,hr,Bus,['002'],2,0,1,0,36.915454,-76.307612
0252,HAMPTON & LITTLE CREEK,hr,Bus,['002'],2,0,1,0,36.915778,-76.30843
0253,HAMPTON & RUNNYMEDE,hr,Bus,['002'],2,0,1,0,36.914414,-76.307211
0254,HAMPTON & NORTH SHORE,hr,Bus,['002'],2,1,1,0,36.910923,-76.30599
3874,LITTLE CREEK & SHIRLAND,hr,Bus,['021'],2,0,1,0,36.915875,-76.304897
0871,LITTLE CREEK & CORTLANDT,hr,Bus,['021'],2,0,1,0,36.915749,-76.302155
0872,LITTLE CREEK & ENFIELD,hr,Bus,['021'],2,0,1,1,36.916003,-76.2978
0974,LITTLE CREEK & ENFIELD,hr,Bus,['021'],2,0,1,1,36.916144,-76.298022
0976,LITTLE CREEK & CORTLANDT,hr,Bus,['021'],2,0,1,0,36.915842,-76.302377
0978,LITTLE CREEK & HAMPTON,hr,Bus,['021'],2,0,1,0,36.916111,-76.306706
0268,HAMPTON & WOODROW,hr,Bus,['002'],2,1,2,0,36.871617,-76.301368
0281,HAMPTON & SPOTSWOOD,hr,Bus,['002'],2,1,2,0,36.868705,-76.300716
0208,HAMPTON & GRAYDON,hr,Bus,['002'],2,2,2,0,36.865936,-76.301043
0093,SHORE & PLEASURE HOUSE,hr,Bus,"['001', '027', '022', '029']",2,0,1,0,36.904554,-76.137797
0092,SHORE & WELLINGS,hr,Bus,"['001', '027', '022']",2,0,0,0,36.905629,-76.145608
0094,PLEASURE HOUSE & VICTORY,hr,Bus,"['001', '027', '022']",2,0,1,0,36.902146,-76.136475
0107,SHORE & WINDWARD,hr,Bus,['029'],2,0,1,0,36.90395,-76.13128
0117,INDEPENDENCE & WAKEFIELD,hr,Bus,"['001', '022']",1,0,1,0,36.88033,-76.132961
5707,INDEPENDENCE & EWELL,hr,Bus,"['001', '022']",1,0,1,0,36.884067,-76.134306
0118,INDEPENDENCE & SEAL,hr,Bus,"['001', '022']",1,0,1,0,36.888042,-76.136663
0120,INDEPENDENCE & TULIP,hr,Bus,"['001', '022']",1,0,1,0,36.893318,-76.140641
0121,PLEASURE HOUSE & ANDREW JACKSON,hr,Bus,"['001', '022']",1,0,1,0,36.894759,-76.141408
0867,PLEASURE HOUSE & THOROUGHGOOD SQ,hr,Bus,"['001', '022']",1,0,1,0,36.896669,-76.139011
0095,PLEASURE HOUSE & FIRST COURT,hr,Bus,"['001', '022']",1,0,1,0,36.897965,-76.138151
0096,PLEASURE HOUSE & INDEPENDENCE,hr,Bus,"['001', '022']",1,0,1,0,36.894934,-76.141423
0122,SHORE & GELA,hr,Bus,"['001', '022']",2,0,0,0,36.906505,-76.150418
0124,SHORE & LAKE SHORES,hr,Bus,"['001', '022']",2,0,0,0,36.907068,-76.162755
0125,SHORE & KIMBALL,hr,Bus,"['001', '022']",2,0,0,0,36.907344,-76.170417
0126,SHORE & LAKE SMITH,hr,Bus,"['001', '022']",2,0,0,0,36.906903,-76.172618
0127,SHORE & DIAMOND SPRINGS,hr,Bus,"['001', '022']",2,0,1,1,36.905733,-76.178433
0081,JOINT EXP BASE LITTLE CREEK,hr,Bus,"['001', '021', '022']",2,0,0,2,36.918136,-76.191304
0123,SHORE & JACK FROST,hr,Bus,"['001', '022']",2,0,0,0,36.907176,-76.156094
0128,SHORE & FLOWERFIELD,hr,Bus,"['001', '022']",2,0,0,1,36.915169,-76.191105
0082,SHORE & FLOWERFIELD,hr,Bus,"['001', '022']",2,0,0,1,36.915265,-76.191367
0083,SHORE & HEUTTE,hr,Bus,"['001', '022']",2,0,0,1,36.912779,-76.190159
0554,LITTLE CREEK & HALPRIN,hr,Bus,['021'],2,0,1,2,36.915008,-76.219791
0555,LITTLE CREEK & BROOKFIELD,hr,Bus,['021'],2,0,1,1,36.915144,-76.21275
0556,LITTLE CREEK &  TARPON,hr,Bus,['021'],2,0,1,1,36.915761,-76.209206
0557,LITTLE CREEK & NANCY,hr,Bus,['021'],2,0,1,1,36.916415,-76.205761
0559,LITTLE CREEK & REDMON,hr,Bus,['021'],2,0,0,1,36.917638,-76.199114
0560,LITTLE CREEK & WOODALL,hr,Bus,['021'],2,0,1,2,36.917855,-76.197252
0561,LITTLE CREEK & SHORE,hr,Bus,['021'],2,0,0,2,36.917931,-76.195166
0088,SHORE & LAKE SHORES,hr,Bus,"['001', '022']",2,0,0,0,36.906848,-76.161419
0089,SHORE & JACK FROST,hr,Bus,"['001', '022']",2,0,0,0,36.90695,-76.15643
0090,SHORE & GELA,hr,Bus,"['001', '022']",2,0,0,0,36.90639,-76.151363
0866,INDEPENDENCE & LAKESIDE,hr,Bus,"['001', '022']",2,0,0,0,36.892569,-76.140202
1511,INDEPENDENCE & CULLEN,hr,Bus,"['001', '022']",2,0,1,0,36.888627,-76.137461
0097,INDEPENDENCE & EWELL,hr,Bus,"['001', '022']",2,0,1,0,36.884184,-76.134711
0098,INDEPENDENCE & PAUL REVERE,hr,Bus,"['001', '022']",2,0,1,0,36.8798,-76.133364
1324,NORTHAMPTON & SHELL,hr,Bus,['027'],2,0,0,0,36.895452,-76.154894
1325,NORTHAMPTON & JACK FROST,hr,Bus,['027'],2,0,0,0,36.894946,-76.15735
5864,HAYGOOD & TWAIN,hr,Bus,['022'],2,1,2,0,36.874366,-76.137351
5856,HAYGOOD & FERRY PLANTATION,hr,Bus,['022'],2,1,2,0,36.873811,-76.138649
5865,HAYGOOD & HUNTING HILL,hr,Bus,['022'],2,0,1,1,36.871951,-76.143278
5866,HAYGOOD & CROSSBROUGH,hr,Bus,['022'],2,0,1,1,36.870446,-76.146963
5867,HAYGOOD & HAYGOOD,hr,Bus,['022'],2,0,0,1,36.868969,-76.150536
0084,SHORE & DIAMOND SPRINGS,hr,Bus,"['001', '022']",2,0,1,1,36.905531,-76.177317
0086,SHORE & LAKE SMITH,hr,Bus,"['001', '022']",2,0,0,0,36.906566,-76.172752
0087,SHORE & KIMBALL,hr,Bus,"['001', '022']",2,0,0,0,36.907107,-76.169631
1323,NORTHAMPTON & BAYSIDE,hr,Bus,['027'],2,0,0,1,36.89161,-76.171072
1326,NORTHAMPTON & BAYSIDE,hr,Bus,['027'],2,0,0,1,36.892329,-76.168907
0169,GRANBY & LITTLE CREEK,hr,Bus,"['001', '021']",2,0,2,1,36.915456,-76.272758
0966,LITTLE CREEK & VICTORY,hr,Bus,['021'],2,0,2,1,36.915167,-76.275839
0967,LITTLE CREEK & NEWPORT,hr,Bus,['021'],2,0,1,1,36.915622,-76.279867
0969,LITTLE CREEK & RUTHVEN,hr,Bus,['021'],2,0,1,1,36.916166,-76.285737
0970,LITTLE CREEK & GRANTHAM,hr,Bus,['021'],2,0,1,1,36.916265,-76.287891
0164,GRANBY & CHESTER,hr,Bus,['001'],1,0,0,1,36.939594,-76.261672
0165,GRANBY & LANDALE,hr,Bus,['001'],1,0,0,1,36.936227,-76.263575
0166,GRANBY & BAYVIEW,hr,Bus,['001'],1,0,0,1,36.934366,-76.264629
0170,GRANBY & NORTH SHORE,hr,Bus,['001'],2,0,2,1,36.912501,-76.273809
0876,LITTLE CREEK & ARMFIELD,hr,Bus,['021'],2,0,1,1,36.916095,-76.290152
0877,LITTLE CREEK & RUTHVEN,hr,Bus,['021'],2,0,1,1,36.916,-76.285358
0878,LITTLE CREEK & SHERYL,hr,Bus,['021'],2,0,1,1,36.915584,-76.281386
0881,LITTLE CREEK & COLONIAL,hr,Bus,['021'],2,0,2,1,36.914919,-76.274783
0034,GRANBY & FORSYTHE,hr,Bus,['001'],2,1,2,1,36.906911,-76.275806
0036,GRANBY & FIFE,hr,Bus,['001'],2,1,2,1,36.90864,-76.275082
0037,GRANBY & SUBURBAN,hr,Bus,['001'],2,0,2,2,36.91231,-76.273488
0064,OCEAN VIEW & BEAUMONT,hr,Bus,['001'],2,0,0,1,36.940397,-76.228705
0065,OCEAN VIEW & GROVE,hr,Bus,['001'],2,0,0,1,36.939199,-76.225509
0066,OCEAN VIEW & CAPE VIEW,hr,Bus,['001'],2,0,0,1,36.938352,-76.223038
0068,OCEAN VIEW & 1ST BAY,hr,Bus,['001'],2,0,0,1,36.936328,-76.216953
2087,OCEAN VIEW & INLET,hr,Bus,['001'],2,0,0,1,36.93735,-76.219408
0140,OCEAN VIEW & CAPEVIEW,hr,Bus,['001'],2,0,0,1,36.938444,-76.222713
0141,OCEAN VIEW & GROVE,hr,Bus,['001'],2,0,0,1,36.939554,-76.225963
0070,OCEAN VIEW & 3RD BAY,hr,Bus,['001'],2,0,0,2,36.934911,-76.212704
0071,OCEAN VIEW & 7TH BAY,hr,Bus,['001'],2,0,0,2,36.9341,-76.20953
0072,OCEAN VIEW & 10TH BAY,hr,Bus,['001'],2,0,0,2,36.933115,-76.205746
0074,OCEAN VIEW & 14TH BAY,hr,Bus,['001'],2,0,0,1,36.931915,-76.200956
0133,OCEAN VIEW & 14TH BAY,hr,Bus,['001'],2,0,0,1,36.931902,-76.200404
0137,OCEAN VIEW & 10TH BAY,hr,Bus,['001'],2,0,0,2,36.933125,-76.205138
0138,OCEAN VIEW & 6TH BAY,hr,Bus,['001'],2,0,0,2,36.934484,-76.210343
0139,OCEAN VIEW & 2ND BAY,hr,Bus,['001'],2,0,0,2,36.93547,-76.214096
0075,OCEAN VIEW & 16TH BAY,hr,Bus,['001'],2,0,0,1,36.931381,-76.198895
0077,OCEAN VIEW & 20TH BAY,hr,Bus,['001'],2,0,0,1,36.930475,-76.193606
0079,SHORE & PLEASANT,hr,Bus,['001'],2,0,0,1,36.928098,-76.191202
0869,SHORE & PLEASANT,hr,Bus,['001'],2,0,0,1,36.928887,-76.191269
0132,OCEAN VIEW & 19TH BAY,hr,Bus,['001'],2,0,0,1,36.930883,-76.194834
0080,SHORE & DUNNING,hr,Bus,['001'],2,0,0,2,36.921058,-76.192628
0129,SHORE & DUNNING,hr,Bus,['001'],2,0,0,1,36.920597,-76.192435
0565,LITTLE CREEK & SHORE,hr,Bus,['021'],2,0,0,1,36.918229,-76.193441
0566,LITTLE CREEK & WOODALL,hr,Bus,['021'],2,0,1,2,36.9181,-76.19809
0099,INDEPENDENCE & HAYGOOD,hr,Bus,['001'],1,1,2,0,36.873994,-76.134745
0101,INDEPENDENCE & WITCHDUCK,hr,Bus,['001'],1,2,2,0,36.867947,-76.133047
0102,INDEPENDENCE & PEMBROKE,hr,Bus,['001'],1,2,2,0,36.863528,-76.132314
5406,PEMBROKE & N WITCHDUCK,hr,Bus,['024'],1,1,1,0,36.861626,-76.13711
5881,HAYGOOD & HUNTING HILL,hr,Bus,['022'],1,0,1,1,36.871912,-76.142877
5855,HAYGOOD & FERRY PLANTATION,hr,Bus,['022'],1,1,2,0,36.873271,-76.139424
5882,HAYGOOD & TWAIN,hr,Bus,['022'],1,1,2,0,36.874466,-76.136736
0114,INDEPENDENCE & PEMBROKE,hr,Bus,['001'],1,2,2,0,36.86402,-76.131875
0115,INDEPENDENCE & WITCHDUCK,hr,Bus,['001'],1,2,1,0,36.868496,-76.132817
0116,INDEPENDENCE & WISHART,hr,Bus,['001'],1,1,2,0,36.873691,-76.134311
1726,ELM & DUKE,hr,Bus,['050'],2,0,1,2,36.827545,-76.312622
5973,ELM & RANDOLPH,hr,Bus,['050'],2,0,1,2,36.826063,-76.312542
1727,LINCOLN & CAMDEN,hr,Bus,['050'],2,0,0,2,36.824475,-76.313631
1729,LINCOLN & CHARLESTON,hr,Bus,['050'],2,0,0,2,36.824401,-76.316785
1733,LINCOLN & EVERGREEN,hr,Bus,['050'],2,0,0,2,36.824202,-76.322789
1735,COLUMBUS & LINCOLN,hr,Bus,['050'],2,0,0,2,36.823719,-76.325083
1737,COLUMBUS & DALE,hr,Bus,['050'],2,0,0,2,36.821205,-76.324972
5616,COLUMBUS & LEXINGTON,hr,Bus,['050'],2,0,0,2,36.819852,-76.324418
1738,DEEP CREEK & GRAHAM,hr,Bus,['050'],2,0,0,2,36.818396,-76.325733
1762,COLUMBUS & LEXINGTON,hr,Bus,['050'],2,0,0,2,36.819991,-76.324333
1763,COLUMBUS & JEFFERSON,hr,Bus,['050'],2,0,0,2,36.821561,-76.32492
1765,COLUMBUS & LINCOLN,hr,Bus,['050'],2,0,0,2,36.823842,-76.325015
1768,LINCOLN & DEEP CREEK,hr,Bus,['050'],2,0,0,2,36.824155,-76.3215
1770,LINCOLN & PIEDMONT,hr,Bus,['050'],2,0,0,2,36.824152,-76.319381
1771,LINCOLN & LANSING,hr,Bus,['050'],2,0,0,2,36.824205,-76.317592
1773,LINCOLN & CAMDEN,hr,Bus,['050'],2,0,0,2,36.824354,-76.313023
1759,DEEP CREEK & EDISON,hr,Bus,['050'],1,0,0,2,36.81279,-76.328176
1576,VICTORY & SEBAGO,hr,Bus,"['041', '057']",1,0,1,2,36.795688,-76.331923
1577,VICTORY & HURON,hr,Bus,"['041', '057']",1,0,1,2,36.7952,-76.329061
1564,VICTORY & GEORGE WASHINGTON,hr,Bus,"['041', '057']",1,0,1,2,36.795474,-76.329112
1565,VICTORY & VICTORY VILLAGE APTS,hr,Bus,"['041', '057']",1,0,1,2,36.796012,-76.332402
2237,VICTORY & DEEP CREEK,hr,Bus,"['041', '057']",1,0,1,2,36.79622,-76.334459
1579,GEORGE WASHINGTON & WOODLAND,hr,Bus,['041'],1,0,1,2,36.797546,-76.325771
1555,GEORGE WASHINGTON & FREDERICK,hr,Bus,['041'],1,0,0,2,36.811505,-76.315799
1556,GEORGE WASHINGTON & GREENWOOD,hr,Bus,['041'],1,0,1,2,36.807483,-76.31925
1557,GEORGE WASHINGTON & HANBURY,hr,Bus,['041'],1,0,1,2,36.804744,-76.321483
1560,GEORGE WASHINGTON & CHANNING,hr,Bus,['041'],1,0,1,2,36.801922,-76.323223
1561,GEORGE WASHINGTON & GARRETT,hr,Bus,['041'],1,0,1,2,36.798936,-76.325141
1563,GEORGE WASHINGTON & RODGERS,hr,Bus,['041'],1,0,1,2,36.7964,-76.326688
1780,GEORGE WASHINGTON & VICTORY,hr,Bus,['057'],1,0,1,2,36.793879,-76.328284
1697,HIGH & RODMAN,hr,Bus,['047'],2,2,2,1,36.835896,-76.347598
1698,HIGH & WILLETT,hr,Bus,['047'],2,2,2,1,36.8375,-76.350135
1699,HIGH & GRAYSON,hr,Bus,['047'],2,1,2,0,36.84018,-76.355363
1702,HIGH & GRAYSON,hr,Bus,['047'],2,1,2,0,36.840372,-76.356266
1711,HIGH & ORANGE,hr,Bus,['047'],2,2,2,1,36.839005,-76.353181
